[{"Destination_airport":"ABE","flights":8353,"icao":"KABE","iata":"ABE","name":"Lehigh Valley International Airport","city":"Allentown","state":"Pennsylvania","country":"US","elevation":393,"lat":40.6520996094,"lon":-75.4408035278,"tz":"America\/New_York"},{"Destination_airport":"ABI","flights":2085,"icao":"KABI","iata":"ABI","name":"Abilene Regional Airport","city":"Abilene","state":"Texas","country":"US","elevation":1791,"lat":32.4113006592,"lon":-99.6819000244,"tz":"America\/Chicago"},{"Destination_airport":"ABQ","flights":21806,"icao":"KABQ","iata":"ABQ","name":"Albuquerque International Sunport Airport","city":"Albuquerque","state":"New-Mexico","country":"US","elevation":5355,"lat":35.0401992798,"lon":-106.6090011597,"tz":"America\/Denver"},{"Destination_airport":"ABR","flights":901,"icao":"KABR","iata":"ABR","name":"Aberdeen Regional Airport","city":"Aberdeen","state":"South-Dakota","country":"US","elevation":1302,"lat":45.4491004944,"lon":-98.4217987061,"tz":"America\/Chicago"},{"Destination_airport":"ABY","flights":739,"icao":"KABY","iata":"ABY","name":"Southwest Georgia Regional Airport","city":"Albany","state":"Georgia","country":"US","elevation":197,"lat":31.5354995728,"lon":-84.1945037842,"tz":"America\/New_York"},{"Destination_airport":"ACT","flights":1746,"icao":"KACT","iata":"ACT","name":"Waco Regional Airport","city":"Waco","state":"Texas","country":"US","elevation":516,"lat":31.6112995148,"lon":-97.2304992676,"tz":"America\/Chicago"},{"Destination_airport":"ACV","flights":1158,"icao":"KACV","iata":"ACV","name":"Arcata Airport","city":"Arcata\/Eureka","state":"California","country":"US","elevation":221,"lat":40.978099823,"lon":-124.1090011597,"tz":"America\/Los_Angeles"},{"Destination_airport":"ACY","flights":5832,"icao":"KACY","iata":"ACY","name":"Atlantic City International Airport","city":"Atlantic City","state":"New-Jersey","country":"US","elevation":75,"lat":39.4575996399,"lon":-74.5772018433,"tz":"America\/New_York"},{"Destination_airport":"ADM","flights":27,"icao":"KADM","iata":"ADM","name":"Ardmore Municipal Airport","city":"Ardmore","state":"Oklahoma","country":"US","elevation":777,"lat":34.30301,"lon":-97.0196342,"tz":"America\/Chicago"},{"Destination_airport":"ADQ","flights":1370,"icao":"PADQ","iata":"ADQ","name":"Kodiak Airport","city":"Kodiak","state":"Alaska","country":"US","elevation":78,"lat":57.75,"lon":-152.4940033,"tz":"America\/Anchorage"},{"Destination_airport":"ADS","flights":473,"icao":"KADS","iata":"ADS","name":"Addison Airport","city":"Dallas","state":"Texas","country":"US","elevation":644,"lat":32.9686012268,"lon":-96.8364028931,"tz":"America\/Chicago"},{"Destination_airport":"AEX","flights":1916,"icao":"KAEX","iata":"AEX","name":"Alexandria International Airport","city":"Alexandria","state":"Louisiana","country":"US","elevation":89,"lat":31.3274002075,"lon":-92.5497970581,"tz":"America\/Chicago"},{"Destination_airport":"AFW","flights":2360,"icao":"KAFW","iata":"AFW","name":"Fort Worth Alliance Airport","city":"Fort Worth","state":"Texas","country":"US","elevation":722,"lat":32.9875984192,"lon":-97.3188018799,"tz":"America\/Chicago"},{"Destination_airport":"AGC","flights":11,"icao":"KAGC","iata":"AGC","name":"Allegheny County Airport","city":"Pittsburgh","state":"Pennsylvania","country":"US","elevation":1252,"lat":40.3544006348,"lon":-79.9301986694,"tz":"America\/New_York"},{"Destination_airport":"AGS","flights":2395,"icao":"KAGS","iata":"AGS","name":"Augusta Regional At Bush Field","city":"Augusta","state":"Georgia","country":"US","elevation":144,"lat":33.3698997498,"lon":-81.9645004272,"tz":"America\/New_York"},{"Destination_airport":"AHN","flights":251,"icao":"KAHN","iata":"AHN","name":"Athens Ben Epps Airport","city":"Athens","state":"Georgia","country":"US","elevation":808,"lat":33.948600769,"lon":-83.3263015747,"tz":"America\/New_York"},{"Destination_airport":"AID","flights":17,"icao":"KAID","iata":"AID","name":"Anderson Municipal Darlington Field","city":"Anderson","state":"Indiana","country":"US","elevation":919,"lat":40.1086006165,"lon":-85.6129989624,"tz":"America\/Indiana\/Indianapolis"},{"Destination_airport":"ALB","flights":13559,"icao":"KALB","iata":"ALB","name":"Albany International Airport","city":"Albany","state":"New-York","country":"US","elevation":285,"lat":42.748298645,"lon":-73.8016967773,"tz":"America\/New_York"},{"Destination_airport":"ALM","flights":161,"icao":"KALM","iata":"ALM","name":"Alamogordo White Sands Regional Airport","city":"Alamogordo","state":"New-Mexico","country":"US","elevation":4200,"lat":32.8399009705,"lon":-105.9909973145,"tz":"America\/Denver"},{"Destination_airport":"ALO","flights":1092,"icao":"KALO","iata":"ALO","name":"Waterloo Regional Airport","city":"Waterloo","state":"Iowa","country":"US","elevation":873,"lat":42.5570983887,"lon":-92.4002990723,"tz":"America\/Chicago"},{"Destination_airport":"ALW","flights":701,"icao":"KALW","iata":"ALW","name":"Walla Walla Regional Airport","city":"Walla Walla","state":"Washington","country":"US","elevation":1194,"lat":46.09489822,"lon":-118.288002,"tz":"America\/Los_Angeles"},{"Destination_airport":"AMA","flights":4476,"icao":"KAMA","iata":"AMA","name":"Rick Husband Amarillo International Airport","city":"Amarillo","state":"Texas","country":"US","elevation":3607,"lat":35.2193984985,"lon":-101.7060012817,"tz":"America\/Chicago"},{"Destination_airport":"AMK","flights":12,"icao":"K00C","iata":"AMK","name":"Animas Air Park","city":"Durango","state":"Colorado","country":"US","elevation":6684,"lat":37.2032012939,"lon":-107.869003296,"tz":"America\/Denver"},{"Destination_airport":"AMW","flights":1,"icao":"KAMW","iata":"AMW","name":"Ames Municipal Airport","city":"Ames","state":"Iowa","country":"US","elevation":956,"lat":41.99200058,"lon":-93.62180328,"tz":"America\/Chicago"},{"Destination_airport":"ANB","flights":52,"icao":"KANB","iata":"ANB","name":"Anniston Metropolitan Airport","city":"Anniston","state":"Alabama","country":"US","elevation":612,"lat":33.58819962,"lon":-85.85810089,"tz":"America\/Chicago"},{"Destination_airport":"ANC","flights":25422,"icao":"PANC","iata":"ANC","name":"Ted Stevens Anchorage International Airport","city":"Anchorage","state":"Alaska","country":"US","elevation":152,"lat":61.1744003296,"lon":-149.9960021973,"tz":"America\/Anchorage"},{"Destination_airport":"AND","flights":73,"icao":"KAND","iata":"AND","name":"Anderson Regional Airport","city":"Anderson","state":"South-Carolina","country":"US","elevation":782,"lat":34.4945983887,"lon":-82.7093963623,"tz":"America\/New_York"},{"Destination_airport":"AOH","flights":22,"icao":"KAOH","iata":"AOH","name":"Lima Allen County Airport","city":"Lima","state":"Ohio","country":"US","elevation":975,"lat":40.7069015503,"lon":-84.0267028809,"tz":"America\/New_York"},{"Destination_airport":"AOO","flights":346,"icao":"KAOO","iata":"AOO","name":"Altoona Blair County Airport","city":"Altoona","state":"Pennsylvania","country":"US","elevation":1503,"lat":40.29639816,"lon":-78.31999969,"tz":"America\/New_York"},{"Destination_airport":"APC","flights":6,"icao":"KAPC","iata":"APC","name":"Napa County Airport","city":"Napa","state":"California","country":"US","elevation":35,"lat":38.2131996155,"lon":-122.28099823,"tz":"America\/Los_Angeles"},{"Destination_airport":"APF","flights":255,"icao":"KAPF","iata":"APF","name":"Naples Municipal Airport","city":"Naples","state":"Florida","country":"US","elevation":8,"lat":26.1525993347,"lon":-81.7752990723,"tz":"America\/New_York"},{"Destination_airport":"APN","flights":283,"icao":"KAPN","iata":"APN","name":"Alpena County Regional Airport","city":"Alpena","state":"Michigan","country":"US","elevation":690,"lat":45.0780983,"lon":-83.56030273,"tz":"America\/Detroit"},{"Destination_airport":"ARA","flights":16,"icao":"KARA","iata":"ARA","name":"Acadiana Regional Airport","city":"New Iberia","state":"Louisiana","country":"US","elevation":24,"lat":30.0377998352,"lon":-91.8839035034,"tz":"America\/Chicago"},{"Destination_airport":"ARB","flights":1,"icao":"KARB","iata":"ARB","name":"Ann Arbor Municipal Airport","city":"Ann Arbor","state":"Michigan","country":"US","elevation":839,"lat":42.2229995728,"lon":-83.7455978394,"tz":"America\/Detroit"},{"Destination_airport":"ART","flights":219,"icao":"KART","iata":"ART","name":"Watertown International Airport","city":"Watertown","state":"New-York","country":"US","elevation":325,"lat":43.9919013977,"lon":-76.021697998,"tz":"America\/New_York"},{"Destination_airport":"ASL","flights":1,"icao":"KASL","iata":"ASL","name":"Harrison County Airport","city":"Marshall","state":"Texas","country":"US","elevation":357,"lat":32.5205001831,"lon":-94.307800293,"tz":"America\/Chicago"},{"Destination_airport":"ASN","flights":32,"icao":"KASN","iata":"ASN","name":"Talladega Municipal Airport","city":"Talladega","state":"Alabama","country":"US","elevation":529,"lat":33.5699005127,"lon":-86.0509033203,"tz":"America\/Chicago"},{"Destination_airport":"AST","flights":39,"icao":"KAST","iata":"AST","name":"Astoria Regional Airport","city":"Astoria","state":"Oregon","country":"US","elevation":15,"lat":46.158000946,"lon":-123.878997803,"tz":"America\/Los_Angeles"},{"Destination_airport":"ATL","flights":132779,"icao":"KATL","iata":"ATL","name":"Hartsfield Jackson Atlanta International Airport","city":"Atlanta","state":"Georgia","country":"US","elevation":1026,"lat":33.6366996765,"lon":-84.4281005859,"tz":"America\/New_York"},{"Destination_airport":"ATW","flights":3479,"icao":"KATW","iata":"ATW","name":"Appleton International Airport","city":"Appleton","state":"Wisconsin","country":"US","elevation":918,"lat":44.2580986023,"lon":-88.5190963745,"tz":"America\/Chicago"},{"Destination_airport":"ATY","flights":552,"icao":"KATY","iata":"ATY","name":"Watertown Regional Airport","city":"Watertown","state":"South-Dakota","country":"US","elevation":1749,"lat":44.91400146,"lon":-97.15470123,"tz":"America\/Chicago"},{"Destination_airport":"AUG","flights":138,"icao":"KAUG","iata":"AUG","name":"Augusta State Airport","city":"Augusta","state":"Maine","country":"US","elevation":352,"lat":44.3205986023,"lon":-69.7973022461,"tz":"America\/New_York"},{"Destination_airport":"AUO","flights":4,"icao":"KAUO","iata":"AUO","name":"Auburn Opelika Robert G. Pitts Airport","city":"Auburn","state":"Alabama","country":"US","elevation":777,"lat":32.61510086,"lon":-85.43399811,"tz":"America\/Chicago"},{"Destination_airport":"AUS","flights":24004,"icao":"KAUS","iata":"AUS","name":"Austin Bergstrom International Airport","city":"Austin","state":"Texas","country":"US","elevation":542,"lat":30.1944999695,"lon":-97.6698989868,"tz":"America\/Chicago"},{"Destination_airport":"AVL","flights":3134,"icao":"KAVL","iata":"AVL","name":"Asheville Regional Airport","city":"Asheville","state":"North-Carolina","country":"US","elevation":2165,"lat":35.4361991882,"lon":-82.5418014526,"tz":"America\/New_York"},{"Destination_airport":"AVP","flights":3447,"icao":"KAVP","iata":"AVP","name":"Wilkes Barre Scranton International Airport","city":"Wilkes-Barre\/Scranton","state":"Pennsylvania","country":"US","elevation":962,"lat":41.3385009766,"lon":-75.7233963013,"tz":"America\/New_York"},{"Destination_airport":"AXN","flights":120,"icao":"KAXN","iata":"AXN","name":"Chandler Field","city":"Alexandria","state":"Minnesota","country":"US","elevation":1425,"lat":45.8662986755,"lon":-95.3946990967,"tz":"America\/Chicago"},{"Destination_airport":"AXV","flights":9,"icao":"KAXV","iata":"AXV","name":"Neil Armstrong Airport","city":"Wapakoneta","state":"Ohio","country":"US","elevation":913,"lat":40.49340057,"lon":-84.29889679,"tz":"America\/New_York"},{"Destination_airport":"AYS","flights":1,"icao":"KAYS","iata":"AYS","name":"Waycross Ware County Airport","city":"Waycross","state":"Georgia","country":"US","elevation":142,"lat":31.2490997314,"lon":-82.3955001831,"tz":"America\/New_York"},{"Destination_airport":"AZA","flights":442,"icao":"KIWA","iata":"AZA","name":"Phoenix-Mesa-Gateway Airport","city":"Phoenix","state":"Arizona","country":"US","elevation":1382,"lat":33.30780029,"lon":-111.6549988,"tz":"America\/Phoenix"},{"Destination_airport":"AZO","flights":3887,"icao":"KAZO","iata":"AZO","name":"Kalamazoo Battle Creek International Airport","city":"Kalamazoo","state":"Michigan","country":"US","elevation":874,"lat":42.2349014282,"lon":-85.5521011353,"tz":"America\/Detroit"},{"Destination_airport":"BAD","flights":46,"icao":"KBAD","iata":"BAD","name":"Barksdale Air Force Base","city":"Bossier City","state":"Louisiana","country":"US","elevation":166,"lat":32.5018005371,"lon":-93.6626968384,"tz":"America\/Chicago"},{"Destination_airport":"BBC","flights":1,"icao":"KBYY","iata":"BBC","name":"Bay City Municipal Airport","city":"Bay City","state":"Texas","country":"US","elevation":45,"lat":28.9733009338,"lon":-95.8635025024,"tz":"America\/Chicago"},{"Destination_airport":"BDL","flights":25757,"icao":"KBDL","iata":"BDL","name":"Bradley International Airport","city":"Hartford","state":"Connecticut","country":"US","elevation":173,"lat":41.9388999939,"lon":-72.6831970215,"tz":"America\/New_York"},{"Destination_airport":"BDR","flights":297,"icao":"KBDR","iata":"BDR","name":"Igor I Sikorsky Memorial Airport","city":"Bridgeport","state":"Connecticut","country":"US","elevation":9,"lat":41.1635017395,"lon":-73.1261978149,"tz":"America\/New_York"},{"Destination_airport":"BFD","flights":206,"icao":"KBFD","iata":"BFD","name":"Bradford Regional Airport","city":"Bradford","state":"Pennsylvania","country":"US","elevation":2143,"lat":41.8031005859,"lon":-78.6400985718,"tz":"America\/New_York"},{"Destination_airport":"BFF","flights":446,"icao":"KBFF","iata":"BFF","name":"Western Neb. Rgnl\/William B. Heilig Airport","city":"Scottsbluff","state":"Nebraska","country":"US","elevation":3967,"lat":41.87400055,"lon":-103.5960007,"tz":"America\/Denver"},{"Destination_airport":"BFI","flights":2508,"icao":"KBFI","iata":"BFI","name":"Boeing Field King County International Airport","city":"Seattle","state":"Washington","country":"US","elevation":21,"lat":47.5299987793,"lon":-122.3020019531,"tz":"America\/Los_Angeles"},{"Destination_airport":"BFL","flights":1072,"icao":"KBFL","iata":"BFL","name":"Meadows Field","city":"Bakersfield","state":"California","country":"US","elevation":510,"lat":35.43360138,"lon":-119.0569992,"tz":"America\/Los_Angeles"},{"Destination_airport":"BFM","flights":582,"icao":"KBFM","iata":"BFM","name":"Mobile Downtown Airport","city":"Mobile","state":"Alabama","country":"US","elevation":26,"lat":30.6268005371,"lon":-88.0680999756,"tz":"America\/Chicago"},{"Destination_airport":"BFR","flights":2,"icao":"KBFR","iata":"BFR","name":"Virgil I Grissom Municipal Airport","city":"Bedford","state":"Indiana","country":"US","elevation":727,"lat":38.84000015,"lon":-86.44539642,"tz":"America\/Indiana\/Indianapolis"},{"Destination_airport":"BGM","flights":1701,"icao":"KBGM","iata":"BGM","name":"Greater Binghamton\/Edwin A Link field","city":"Binghamton","state":"New-York","country":"US","elevation":1636,"lat":42.20869827,"lon":-75.97979736,"tz":"America\/New_York"},{"Destination_airport":"BGR","flights":3577,"icao":"KBGR","iata":"BGR","name":"Bangor International Airport","city":"Bangor","state":"Maine","country":"US","elevation":192,"lat":44.8073997498,"lon":-68.8281021118,"tz":"America\/New_York"},{"Destination_airport":"BGS","flights":4,"icao":"KBPG","iata":"BGS","name":"Big Spring Mc Mahon-Wrinkle Airport","city":"Big Spring","state":"Texas","country":"US","elevation":2573,"lat":32.21260071,"lon":-101.5220032,"tz":"America\/Chicago"},{"Destination_airport":"BHM","flights":15128,"icao":"KBHM","iata":"BHM","name":"Birmingham-Shuttlesworth International Airport","city":"Birmingham","state":"Alabama","country":"US","elevation":650,"lat":33.56290054,"lon":-86.75350189,"tz":"America\/Chicago"},{"Destination_airport":"BIF","flights":186,"icao":"KBIF","iata":"BIF","name":"Biggs Army Air Field (Fort Bliss)","city":"Fort Bliss\/El Paso","state":"Texas","country":"US","elevation":3946,"lat":31.84950066,"lon":-106.3799973,"tz":"America\/Denver"},{"Destination_airport":"BIH","flights":3,"icao":"KBIH","iata":"BIH","name":"Eastern Sierra Regional Airport","city":"Bishop","state":"California","country":"US","elevation":4124,"lat":37.3731002808,"lon":-118.363998413,"tz":"America\/Los_Angeles"},{"Destination_airport":"BIL","flights":4171,"icao":"KBIL","iata":"BIL","name":"Billings Logan International Airport","city":"Billings","state":"Montana","country":"US","elevation":3652,"lat":45.8077011108,"lon":-108.5429992676,"tz":"America\/Denver"},{"Destination_airport":"BIS","flights":2110,"icao":"KBIS","iata":"BIS","name":"Bismarck Municipal Airport","city":"Bismarck","state":"North-Dakota","country":"US","elevation":1661,"lat":46.7727012634,"lon":-100.7460021973,"tz":"America\/Chicago"},{"Destination_airport":"BJI","flights":721,"icao":"KBJI","iata":"BJI","name":"Bemidji Regional Airport","city":"Bemidji","state":"Minnesota","country":"US","elevation":1391,"lat":47.50939941,"lon":-94.93370056,"tz":"America\/Chicago"},{"Destination_airport":"BJJ","flights":2,"icao":"KBJJ","iata":"BJJ","name":"Wayne County Airport","city":"Wooster","state":"Ohio","country":"US","elevation":1136,"lat":40.8748016357,"lon":-81.8882980347,"tz":"America\/New_York"},{"Destination_airport":"BKG","flights":59,"icao":"KBBG","iata":"BKG","name":"Branson Airport","city":"Branson","state":"Missouri","country":"US","elevation":1302,"lat":36.532082,"lon":-93.200544,"tz":"America\/Chicago"},{"Destination_airport":"BKL","flights":194,"icao":"KBKL","iata":"BKL","name":"Burke Lakefront Airport","city":"Cleveland","state":"Ohio","country":"US","elevation":583,"lat":41.5175018311,"lon":-81.6832962036,"tz":"America\/New_York"},{"Destination_airport":"BKW","flights":157,"icao":"KBKW","iata":"BKW","name":"Raleigh County Memorial Airport","city":"Beckley","state":"West-Virginia","country":"US","elevation":2504,"lat":37.7873001099,"lon":-81.1241989136,"tz":"America\/New_York"},{"Destination_airport":"BKX","flights":115,"icao":"KBKX","iata":"BKX","name":"Brookings Regional Airport","city":"Brookings","state":"South-Dakota","country":"US","elevation":1648,"lat":44.3047981262,"lon":-96.8169021606,"tz":"America\/Chicago"},{"Destination_airport":"BLI","flights":1241,"icao":"KBLI","iata":"BLI","name":"Bellingham International Airport","city":"Bellingham","state":"Washington","country":"US","elevation":170,"lat":48.7928009033,"lon":-122.5380020142,"tz":"America\/Los_Angeles"},{"Destination_airport":"BMC","flights":1,"icao":"KBMC","iata":"BMC","name":"Brigham City Airport","city":"Brigham City","state":"Utah","country":"US","elevation":4229,"lat":41.5523986816,"lon":-112.06199646,"tz":"America\/Denver"},{"Destination_airport":"BMG","flights":179,"icao":"KBMG","iata":"BMG","name":"Monroe County Airport","city":"Bloomington","state":"Alabama","country":"US","elevation":846,"lat":39.1459999084,"lon":-86.6166992188,"tz":"America\/Indiana\/Indianapolis"},{"Destination_airport":"BMI","flights":2763,"icao":"KBMI","iata":"BMI","name":"Central Illinois Regional Airport at Bloomington-Normal","city":"Bloomington-Normal","state":"Illinois","country":"US","elevation":871,"lat":40.47710037,"lon":-88.91590118,"tz":"America\/Chicago"},{"Destination_airport":"BNA","flights":35400,"icao":"KBNA","iata":"BNA","name":"Nashville International Airport","city":"Nashville","state":"Tennessee","country":"US","elevation":599,"lat":36.1245002747,"lon":-86.6781997681,"tz":"America\/Chicago"},{"Destination_airport":"BOS","flights":56361,"icao":"KBOS","iata":"BOS","name":"General Edward Lawrence Logan International Airport","city":"Boston","state":"Massachusetts","country":"US","elevation":20,"lat":42.36429977,"lon":-71.00520325,"tz":"America\/New_York"},{"Destination_airport":"BPT","flights":1440,"icao":"KBPT","iata":"BPT","name":"Southeast Texas Regional Airport","city":"Beaumont\/Port Arthur","state":"Texas","country":"US","elevation":15,"lat":29.950799942,"lon":-94.0206985474,"tz":"America\/Chicago"},{"Destination_airport":"BQK","flights":285,"icao":"KBQK","iata":"BQK","name":"Brunswick Golden Isles Airport","city":"Brunswick","state":"Georgia","country":"US","elevation":26,"lat":31.2588005066,"lon":-81.4664993286,"tz":"America\/New_York"},{"Destination_airport":"BRD","flights":564,"icao":"KBRD","iata":"BRD","name":"Brainerd Lakes Regional Airport","city":"Brainerd","state":"Minnesota","country":"US","elevation":1232,"lat":46.39830017,"lon":-94.13809967,"tz":"America\/Chicago"},{"Destination_airport":"BRL","flights":318,"icao":"KBRL","iata":"BRL","name":"Southeast Iowa Regional Airport","city":"Burlington","state":"Iowa","country":"US","elevation":698,"lat":40.7831993103,"lon":-91.12550354,"tz":"America\/Chicago"},{"Destination_airport":"BRO","flights":1285,"icao":"KBRO","iata":"BRO","name":"Brownsville South Padre Island International Airport","city":"Brownsville","state":"Texas","country":"US","elevation":22,"lat":25.9067993164,"lon":-97.4259033203,"tz":"America\/Chicago"},{"Destination_airport":"BSM","flights":11,"icao":"OINJ","iata":"BSM","name":"Bishe Kola Air Base","city":"Amol","state":"Mazandaran","country":"IR","elevation":-79,"lat":36.6551017761,"lon":52.3496017456,"tz":"Asia\/Tehran"},{"Destination_airport":"BTL","flights":123,"icao":"KBTL","iata":"BTL","name":"W K Kellogg Airport","city":"Battle Creek","state":"Michigan","country":"US","elevation":952,"lat":42.3073005676,"lon":-85.2515029907,"tz":"America\/Detroit"},{"Destination_airport":"BTM","flights":1017,"icao":"KBTM","iata":"BTM","name":"Bert Mooney Airport","city":"Butte","state":"Montana","country":"US","elevation":5550,"lat":45.9547996521,"lon":-112.4970016479,"tz":"America\/Denver"},{"Destination_airport":"BTR","flights":5625,"icao":"KBTR","iata":"BTR","name":"Baton Rouge Metropolitan Ryan Field","city":"Baton Rouge","state":"Louisiana","country":"US","elevation":70,"lat":30.53319931,"lon":-91.14959717,"tz":"America\/Chicago"},{"Destination_airport":"BTV","flights":5358,"icao":"KBTV","iata":"BTV","name":"Burlington International Airport","city":"Burlington","state":"Vermont","country":"US","elevation":335,"lat":44.4719009399,"lon":-73.1532974243,"tz":"America\/New_York"},{"Destination_airport":"BUF","flights":19810,"icao":"KBUF","iata":"BUF","name":"Buffalo Niagara International Airport","city":"Buffalo","state":"New-York","country":"US","elevation":728,"lat":42.94049835,"lon":-78.73220062,"tz":"America\/New_York"},{"Destination_airport":"BVX","flights":5,"icao":"KBVX","iata":"BVX","name":"Batesville Regional Airport","city":"Batesville","state":"Arkansas","country":"US","elevation":465,"lat":35.7262001,"lon":-91.64730072,"tz":"America\/Chicago"},{"Destination_airport":"BWD","flights":150,"icao":"KBWD","iata":"BWD","name":"Brownwood Regional Airport","city":"Brownwood","state":"Texas","country":"US","elevation":1387,"lat":31.7936000824,"lon":-98.9564971924,"tz":"America\/Chicago"},{"Destination_airport":"BWG","flights":308,"icao":"KBWG","iata":"BWG","name":"Bowling Green Warren County Regional Airport","city":"Bowling Green","state":"Kentucky","country":"US","elevation":547,"lat":36.9645004272,"lon":-86.4197006226,"tz":"America\/Chicago"},{"Destination_airport":"BWI","flights":48046,"icao":"KBWI","iata":"BWI","name":"Baltimore\/Washington International Thurgood Marshal Airport","city":"Baltimore","state":"Maryland","country":"US","elevation":146,"lat":39.17539978,"lon":-76.66829681,"tz":"America\/New_York"},{"Destination_airport":"BYH","flights":25,"icao":"KBYH","iata":"BYH","name":"Arkansas International Airport","city":"Blytheville","state":"Arkansas","country":"US","elevation":254,"lat":35.9642982483,"lon":-89.9440002441,"tz":"America\/Chicago"},{"Destination_airport":"BYI","flights":5,"icao":"KBYI","iata":"BYI","name":"Burley Municipal Airport","city":"Burley","state":"Idaho","country":"US","elevation":4150,"lat":42.5425987244,"lon":-113.7720031738,"tz":"America\/Boise"},{"Destination_airport":"BZN","flights":2604,"icao":"KBZN","iata":"BZN","name":"Gallatin Field","city":"Bozeman","state":"Montana","country":"US","elevation":4473,"lat":45.77750015,"lon":-111.1529999,"tz":"America\/Denver"},{"Destination_airport":"CAD","flights":27,"icao":"KCAD","iata":"CAD","name":"Wexford County Airport","city":"Cadillac","state":"Michigan","country":"US","elevation":1307,"lat":44.2752990723,"lon":-85.4188995361,"tz":"America\/Detroit"},{"Destination_airport":"CAE","flights":9653,"icao":"KCAE","iata":"CAE","name":"Columbia Metropolitan Airport","city":"Columbia","state":"South-Carolina","country":"US","elevation":236,"lat":33.9388008118,"lon":-81.1194992065,"tz":"America\/New_York"},{"Destination_airport":"CAK","flights":4512,"icao":"KCAK","iata":"CAK","name":"Akron Canton Regional Airport","city":"Akron","state":"Ohio","country":"US","elevation":1228,"lat":40.9160995483,"lon":-81.442199707,"tz":"America\/New_York"},{"Destination_airport":"CBE","flights":153,"icao":"KCBE","iata":"CBE","name":"Greater Cumberland Regional Airport","city":"Cumberland","state":"West-Virginia","country":"US","elevation":775,"lat":39.615398407,"lon":-78.7609024048,"tz":"America\/New_York"},{"Destination_airport":"CBM","flights":4,"icao":"KCBM","iata":"CBM","name":"Columbus Air Force Base","city":"Columbus","state":"Mississippi","country":"US","elevation":219,"lat":33.6437988281,"lon":-88.4438018799,"tz":"America\/Chicago"},{"Destination_airport":"CDC","flights":362,"icao":"KCDC","iata":"CDC","name":"Cedar City Regional Airport","city":"Cedar City","state":"Utah","country":"US","elevation":5622,"lat":37.7010002136,"lon":-113.0989990234,"tz":"America\/Denver"},{"Destination_airport":"CEC","flights":381,"icao":"KCEC","iata":"CEC","name":"Jack Mc Namara Field Airport","city":"Crescent City","state":"California","country":"US","elevation":61,"lat":41.78020096,"lon":-124.2369995,"tz":"America\/Los_Angeles"},{"Destination_airport":"CEV","flights":3,"icao":"KCEV","iata":"CEV","name":"Mettel Field","city":"Connersville","state":"Indiana","country":"US","elevation":867,"lat":39.6985015869,"lon":-85.129699707,"tz":"America\/Indiana\/Indianapolis"},{"Destination_airport":"CFV","flights":2,"icao":"KCFV","iata":"CFV","name":"Coffeyville Municipal Airport","city":"Coffeyville","state":"Kansas","country":"US","elevation":754,"lat":37.09400177,"lon":-95.5718994141,"tz":"America\/Chicago"},{"Destination_airport":"CGF","flights":2,"icao":"KCGF","iata":"CGF","name":"Cuyahoga County Airport","city":"Cleveland","state":"Ohio","country":"US","elevation":879,"lat":41.5651016235,"lon":-81.4863967896,"tz":"America\/New_York"},{"Destination_airport":"CGI","flights":396,"icao":"KCGI","iata":"CGI","name":"Cape Girardeau Regional Airport","city":"Cape Girardeau","state":"Missouri","country":"US","elevation":342,"lat":37.2252998352,"lon":-89.5708007813,"tz":"America\/Chicago"},{"Destination_airport":"CHA","flights":4121,"icao":"KCHA","iata":"CHA","name":"Lovell Field","city":"Chattanooga","state":"Tennessee","country":"US","elevation":683,"lat":35.0353012085,"lon":-85.2037963867,"tz":"America\/New_York"},{"Destination_airport":"CHO","flights":1873,"icao":"KCHO","iata":"CHO","name":"Charlottesville Albemarle Airport","city":"Charlottesville","state":"Virginia","country":"US","elevation":639,"lat":38.1385993958,"lon":-78.4529037476,"tz":"America\/New_York"},{"Destination_airport":"CHS","flights":8921,"icao":"KCHS","iata":"CHS","name":"Charleston Air Force Base-International Airport","city":"Charleston","state":"South-Carolina","country":"US","elevation":46,"lat":32.89860153,"lon":-80.04049683,"tz":"America\/New_York"},{"Destination_airport":"CIC","flights":330,"icao":"KCIC","iata":"CIC","name":"Chico Municipal Airport","city":"Chico","state":"California","country":"US","elevation":240,"lat":39.79539871,"lon":-121.8580017,"tz":"America\/Los_Angeles"},{"Destination_airport":"CID","flights":6372,"icao":"KCID","iata":"CID","name":"The Eastern Iowa Airport","city":"Cedar Rapids","state":"Iowa","country":"US","elevation":869,"lat":41.8847007751,"lon":-91.7108001709,"tz":"America\/Chicago"},{"Destination_airport":"CKB","flights":587,"icao":"KCKB","iata":"CKB","name":"North Central West Virginia Airport","city":"Clarksburg","state":"West-Virginia","country":"US","elevation":1217,"lat":39.2966003418,"lon":-80.2281036377,"tz":"America\/New_York"},{"Destination_airport":"CLE","flights":56031,"icao":"KCLE","iata":"CLE","name":"Cleveland Hopkins International Airport","city":"Cleveland","state":"Ohio","country":"US","elevation":791,"lat":41.4117012024,"lon":-81.8498001099,"tz":"America\/New_York"},{"Destination_airport":"CLL","flights":2017,"icao":"KCLL","iata":"CLL","name":"Easterwood Field","city":"College Station","state":"Texas","country":"US","elevation":320,"lat":30.58860016,"lon":-96.36380005,"tz":"America\/Chicago"},{"Destination_airport":"CLM","flights":843,"icao":"KCLM","iata":"CLM","name":"William R Fairchild International Airport","city":"Port Angeles","state":"Washington","country":"US","elevation":291,"lat":48.1202011108,"lon":-123.5,"tz":"America\/Los_Angeles"},{"Destination_airport":"CLT","flights":85069,"icao":"KCLT","iata":"CLT","name":"Charlotte Douglas International Airport","city":"Charlotte","state":"North-Carolina","country":"US","elevation":748,"lat":35.2140007019,"lon":-80.9430999756,"tz":"America\/New_York"},{"Destination_airport":"CLU","flights":90,"icao":"KBAK","iata":"CLU","name":"Columbus Municipal Airport","city":"Columbus","state":"Indiana","country":"US","elevation":656,"lat":39.2619018555,"lon":-85.8963012695,"tz":"America\/Indiana\/Indianapolis"},{"Destination_airport":"CMH","flights":29239,"icao":"KCMH","iata":"CMH","name":"Port Columbus International Airport","city":"Columbus","state":"Ohio","country":"US","elevation":815,"lat":39.9980010986,"lon":-82.8918991089,"tz":"America\/New_York"},{"Destination_airport":"CMI","flights":2103,"icao":"KCMI","iata":"CMI","name":"University of Illinois Willard Airport","city":"Champaign\/Urbana","state":"Illinois","country":"US","elevation":755,"lat":40.03919983,"lon":-88.27809906,"tz":"America\/Chicago"},{"Destination_airport":"CNM","flights":347,"icao":"KCNM","iata":"CNM","name":"Cavern City Air Terminal","city":"Carlsbad","state":"New-Mexico","country":"US","elevation":3295,"lat":32.3375015259,"lon":-104.2630004883,"tz":"America\/Denver"},{"Destination_airport":"CNW","flights":69,"icao":"KCNW","iata":"CNW","name":"TSTC Waco Airport","city":"Waco","state":"Texas","country":"US","elevation":470,"lat":31.6378002167,"lon":-97.0740966797,"tz":"America\/Chicago"},{"Destination_airport":"COS","flights":9089,"icao":"KCOS","iata":"COS","name":"City of Colorado Springs Municipal Airport","city":"Colorado Springs","state":"Colorado","country":"US","elevation":6187,"lat":38.8058013916,"lon":-104.7009963989,"tz":"America\/Denver"},{"Destination_airport":"COU","flights":1197,"icao":"KCOU","iata":"COU","name":"Columbia Regional Airport","city":"Columbia","state":"Missouri","country":"US","elevation":889,"lat":38.8180999756,"lon":-92.2195968628,"tz":"America\/Chicago"},{"Destination_airport":"CPR","flights":1418,"icao":"KCPR","iata":"CPR","name":"Casper-Natrona County International Airport","city":"Casper","state":"Wyoming","country":"US","elevation":5350,"lat":42.90800095,"lon":-106.4639969,"tz":"America\/Denver"},{"Destination_airport":"CPS","flights":16,"icao":"KCPS","iata":"CPS","name":"St Louis Downtown Airport","city":"Cahokia\/St Louis","state":"Illinois","country":"US","elevation":413,"lat":38.5707015991,"lon":-90.1561965942,"tz":"America\/Chicago"},{"Destination_airport":"CRE","flights":1,"icao":"KCRE","iata":"CRE","name":"Grand Strand Airport","city":"North Myrtle Beach","state":"South-Carolina","country":"US","elevation":32,"lat":33.8116989136,"lon":-78.7238998413,"tz":"America\/New_York"},{"Destination_airport":"CRP","flights":4203,"icao":"KCRP","iata":"CRP","name":"Corpus Christi International Airport","city":"Corpus Christi","state":"Texas","country":"US","elevation":44,"lat":27.7703990936,"lon":-97.5011978149,"tz":"America\/Chicago"},{"Destination_airport":"CRS","flights":1,"icao":"KCRS","iata":"CRS","name":"C David Campbell Field Corsicana Municipal Airport","city":"Corsicana","state":"Texas","country":"US","elevation":449,"lat":32.0280990601,"lon":-96.4005966187,"tz":"America\/Chicago"},{"Destination_airport":"CRW","flights":3633,"icao":"KCRW","iata":"CRW","name":"Yeager Airport","city":"Charleston","state":"West-Virginia","country":"US","elevation":981,"lat":38.3731002808,"lon":-81.5932006836,"tz":"America\/New_York"},{"Destination_airport":"CSG","flights":1301,"icao":"KCSG","iata":"CSG","name":"Columbus Metropolitan Airport","city":"Columbus","state":"Georgia","country":"US","elevation":397,"lat":32.5163002014,"lon":-84.9389038086,"tz":"America\/New_York"},{"Destination_airport":"CSV","flights":10,"icao":"KCSV","iata":"CSV","name":"Crossville Memorial Whitson Field","city":"Crossville","state":"Tennessee","country":"US","elevation":1881,"lat":35.9513015747,"lon":-85.0849990845,"tz":"America\/Chicago"},{"Destination_airport":"CUB","flights":1,"icao":"KCUB","iata":"CUB","name":"Jim Hamilton L.B. Owens Airport","city":"Columbia","state":"South-Carolina","country":"US","elevation":193,"lat":33.970500946,"lon":-80.9952011108,"tz":"America\/New_York"},{"Destination_airport":"CVG","flights":60658,"icao":"KCVG","iata":"CVG","name":"Cincinnati Northern Kentucky International Airport","city":"Hebron","state":"Kentucky","country":"US","elevation":896,"lat":39.0488014221,"lon":-84.6678009033,"tz":"America\/New_York"},{"Destination_airport":"CVN","flights":189,"icao":"KCVN","iata":"CVN","name":"Clovis Municipal Airport","city":"Clovis","state":"New-Mexico","country":"US","elevation":4216,"lat":34.4250984192,"lon":-103.07900238,"tz":"America\/Denver"},{"Destination_airport":"CVO","flights":51,"icao":"KCVO","iata":"CVO","name":"Corvallis Municipal Airport","city":"Corvallis","state":"Oregon","country":"US","elevation":250,"lat":44.49720001,"lon":-123.2900009,"tz":"America\/Los_Angeles"},{"Destination_airport":"CVS","flights":46,"icao":"KCVS","iata":"CVS","name":"Cannon Air Force Base","city":"Clovis","state":"New-Mexico","country":"US","elevation":4295,"lat":34.3828010559,"lon":-103.3219985962,"tz":"America\/Denver"},{"Destination_airport":"CWA","flights":2440,"icao":"KCWA","iata":"CWA","name":"Central Wisconsin Airport","city":"Mosinee","state":"Wisconsin","country":"US","elevation":1277,"lat":44.7775993347,"lon":-89.6668014526,"tz":"America\/Chicago"},{"Destination_airport":"CWI","flights":2,"icao":"KCWI","iata":"CWI","name":"Clinton Municipal Airport","city":"Clinton","state":"Arkansas","country":"US","elevation":708,"lat":41.8311004639,"lon":-90.3291015625,"tz":"America\/Chicago"},{"Destination_airport":"CYS","flights":870,"icao":"KCYS","iata":"CYS","name":"Cheyenne Regional Jerry Olson Field","city":"Cheyenne","state":"Wyoming","country":"US","elevation":6159,"lat":41.15570068,"lon":-104.8119965,"tz":"America\/Denver"},{"Destination_airport":"DAL","flights":13542,"icao":"KDAL","iata":"DAL","name":"Dallas Love Field","city":"Dallas","state":"Texas","country":"US","elevation":487,"lat":32.8470993042,"lon":-96.8517990112,"tz":"America\/Chicago"},{"Destination_airport":"DAY","flights":16624,"icao":"KDAY","iata":"DAY","name":"James M Cox Dayton International Airport","city":"Dayton","state":"Ohio","country":"US","elevation":1009,"lat":39.9024009705,"lon":-84.2193984985,"tz":"America\/New_York"},{"Destination_airport":"DBQ","flights":988,"icao":"KDBQ","iata":"DBQ","name":"Dubuque Regional Airport","city":"Dubuque","state":"Iowa","country":"US","elevation":1077,"lat":42.40200043,"lon":-90.70950317,"tz":"America\/Chicago"},{"Destination_airport":"DCA","flights":46254,"icao":"KDCA","iata":"DCA","name":"Ronald Reagan Washington National Airport","city":"Washington","state":"Virginia","country":"US","elevation":15,"lat":38.8521003723,"lon":-77.0376968384,"tz":"America\/New_York"},{"Destination_airport":"DCU","flights":40,"icao":"KDCU","iata":"DCU","name":"Pryor Field Regional Airport","city":"Decatur","state":"Alabama","country":"US","elevation":592,"lat":34.6526985168,"lon":-86.9453964233,"tz":"America\/Chicago"},{"Destination_airport":"DDC","flights":378,"icao":"KDDC","iata":"DDC","name":"Dodge City Regional Airport","city":"Dodge City","state":"Kansas","country":"US","elevation":2594,"lat":37.7634010315,"lon":-99.9655990601,"tz":"America\/Chicago"},{"Destination_airport":"DEC","flights":542,"icao":"KDEC","iata":"DEC","name":"Decatur Airport","city":"Decatur","state":"Illinois","country":"US","elevation":682,"lat":39.8345985413,"lon":-88.8656997681,"tz":"America\/Chicago"},{"Destination_airport":"DET","flights":853,"icao":"KDET","iata":"DET","name":"Coleman A. Young Municipal Airport","city":"Detroit","state":"Michigan","country":"US","elevation":626,"lat":42.40919876,"lon":-83.00990295,"tz":"America\/Detroit"},{"Destination_airport":"DFW","flights":110231,"icao":"KDFW","iata":"DFW","name":"Dallas Fort Worth International Airport","city":"Dallas-Fort Worth","state":"Texas","country":"US","elevation":607,"lat":32.8968009949,"lon":-97.0380020142,"tz":"America\/Chicago"},{"Destination_airport":"DHN","flights":563,"icao":"KDHN","iata":"DHN","name":"Dothan Regional Airport","city":"Dothan","state":"Alabama","country":"US","elevation":401,"lat":31.3213005066,"lon":-85.4496002197,"tz":"America\/Chicago"},{"Destination_airport":"DIK","flights":393,"icao":"KDIK","iata":"DIK","name":"Dickinson Theodore Roosevelt Regional Airport","city":"Dickinson","state":"North-Dakota","country":"US","elevation":2592,"lat":46.7974014282,"lon":-102.802001953,"tz":"America\/Denver"},{"Destination_airport":"DLF","flights":4,"icao":"KDLF","iata":"DLF","name":"Laughlin Air Force Base","city":"Del Rio","state":"Texas","country":"US","elevation":1082,"lat":29.359500885,"lon":-100.7779998779,"tz":"America\/Chicago"},{"Destination_airport":"DLH","flights":2777,"icao":"KDLH","iata":"DLH","name":"Duluth International Airport","city":"Duluth","state":"Minnesota","country":"US","elevation":1428,"lat":46.8420982361,"lon":-92.1936035156,"tz":"America\/Chicago"},{"Destination_airport":"DMA","flights":20,"icao":"KDMA","iata":"DMA","name":"Davis Monthan Air Force Base","city":"Tucson","state":"Arizona","country":"US","elevation":2704,"lat":32.1665000916,"lon":-110.8830032349,"tz":"America\/Phoenix"},{"Destination_airport":"DNN","flights":3,"icao":"KDNN","iata":"DNN","name":"Dalton Municipal Airport","city":"Dalton","state":"Georgia","country":"US","elevation":709,"lat":34.72290039,"lon":-84.87020111,"tz":"America\/New_York"},{"Destination_airport":"DNV","flights":1,"icao":"KDNV","iata":"DNV","name":"Vermilion Regional Airport","city":"Danville","state":"Illinois","country":"US","elevation":697,"lat":40.19919968,"lon":-87.59590149,"tz":"America\/Chicago"},{"Destination_airport":"DOV","flights":445,"icao":"KDOV","iata":"DOV","name":"Dover Air Force Base","city":"Dover","state":"Delaware","country":"US","elevation":24,"lat":39.12950134,"lon":-75.46600342,"tz":"America\/New_York"},{"Destination_airport":"DPA","flights":136,"icao":"KDPA","iata":"DPA","name":"Dupage Airport","city":"Chicago\/West Chicago","state":"Illinois","country":"US","elevation":759,"lat":41.90779877,"lon":-88.24859619,"tz":"America\/Chicago"},{"Destination_airport":"DRO","flights":985,"icao":"KDRO","iata":"DRO","name":"Durango La Plata County Airport","city":"Durango","state":"Colorado","country":"US","elevation":6685,"lat":37.1515007019,"lon":-107.753997803,"tz":"America\/Denver"},{"Destination_airport":"DRT","flights":328,"icao":"KDRT","iata":"DRT","name":"Del Rio International Airport","city":"Del Rio","state":"Texas","country":"US","elevation":1002,"lat":29.3742008209,"lon":-100.927001953,"tz":"America\/Chicago"},{"Destination_airport":"DSM","flights":11130,"icao":"KDSM","iata":"DSM","name":"Des Moines International Airport","city":"Des Moines","state":"Iowa","country":"US","elevation":958,"lat":41.5340003967,"lon":-93.6631011963,"tz":"America\/Chicago"},{"Destination_airport":"DTN","flights":1,"icao":"KDTN","iata":"DTN","name":"Shreveport Downtown Airport","city":"Shreveport","state":"Louisiana","country":"US","elevation":179,"lat":32.5401992798,"lon":-93.7450027466,"tz":"America\/Chicago"},{"Destination_airport":"DTW","flights":99348,"icao":"KDTW","iata":"DTW","name":"Detroit Metropolitan Wayne County Airport","city":"Detroit","state":"Michigan","country":"US","elevation":645,"lat":42.2123985291,"lon":-83.3534011841,"tz":"America\/Detroit"},{"Destination_airport":"DVT","flights":9,"icao":"KDVT","iata":"DVT","name":"Phoenix Deer Valley Airport","city":"Phoenix","state":"Arizona","country":"US","elevation":1478,"lat":33.6883010864,"lon":-112.083000183,"tz":"America\/Phoenix"},{"Destination_airport":"DWH","flights":1,"icao":"KDWH","iata":"DWH","name":"David Wayne Hooks Memorial Airport","city":"Houston","state":"Texas","country":"US","elevation":152,"lat":30.0618000031,"lon":-95.5528030396,"tz":"America\/Chicago"},{"Destination_airport":"DYS","flights":13,"icao":"KDYS","iata":"DYS","name":"Dyess Air Force Base","city":"Abilene","state":"Texas","country":"US","elevation":1789,"lat":32.4207992554,"lon":-99.854598999,"tz":"America\/Chicago"},{"Destination_airport":"EAR","flights":150,"icao":"KEAR","iata":"EAR","name":"Kearney Regional Airport","city":"Kearney","state":"Nebraska","country":"US","elevation":2131,"lat":40.72700119,"lon":-99.00679779,"tz":"America\/Chicago"},{"Destination_airport":"EAT","flights":903,"icao":"KEAT","iata":"EAT","name":"Pangborn Memorial Airport","city":"Wenatchee","state":"Washington","country":"US","elevation":1249,"lat":47.3988990784,"lon":-120.2070007324,"tz":"America\/Los_Angeles"},{"Destination_airport":"EAU","flights":566,"icao":"KEAU","iata":"EAU","name":"Chippewa Valley Regional Airport","city":"Eau Claire","state":"Wisconsin","country":"US","elevation":913,"lat":44.8657989502,"lon":-91.4842987061,"tz":"America\/Chicago"},{"Destination_airport":"ECG","flights":1,"icao":"KECG","iata":"ECG","name":"Elizabeth City Regional Airport & Coast Guard Air Station","city":"Elizabeth City","state":"North-Carolina","country":"US","elevation":12,"lat":36.26060104,"lon":-76.17459869,"tz":"America\/New_York"},{"Destination_airport":"EDF","flights":72,"icao":"PAED","iata":"EDF","name":"Elmendorf Air Force Base","city":"Anchorage","state":"Alaska","country":"US","elevation":212,"lat":61.2509994507,"lon":-149.8070068359,"tz":"America\/Anchorage"},{"Destination_airport":"EFD","flights":868,"icao":"KEFD","iata":"EFD","name":"Ellington Field","city":"Houston","state":"Connecticut","country":"US","elevation":32,"lat":29.6072998047,"lon":-95.1587982178,"tz":"America\/Chicago"},{"Destination_airport":"EIL","flights":86,"icao":"PAEI","iata":"EIL","name":"Eielson Air Force Base","city":"Fairbanks","state":"Alaska","country":"US","elevation":547,"lat":64.66570282,"lon":-147.102005,"tz":"America\/Anchorage"},{"Destination_airport":"EKA","flights":194,"icao":"KEKA","iata":"EKA","name":"Murray Field","city":"Eureka","state":"California","country":"US","elevation":7,"lat":40.8033981323,"lon":-124.1129989624,"tz":"America\/Los_Angeles"},{"Destination_airport":"EKI","flights":9,"icao":"KEKM","iata":"EKI","name":"Elkhart Municipal Airport","city":"Elkhart","state":"Indiana","country":"US","elevation":778,"lat":41.7193984985,"lon":-86.0031967163,"tz":"America\/Indiana\/Indianapolis"},{"Destination_airport":"EKO","flights":7926,"icao":"KEKO","iata":"EKO","name":"Elko Regional Airport","city":"Elko","state":"Nevada","country":"US","elevation":5140,"lat":40.8249015808,"lon":-115.7919998169,"tz":"America\/Los_Angeles"},{"Destination_airport":"EKX","flights":2,"icao":"KEKX","iata":"EKX","name":"Addington Field","city":"Elizabethtown","state":"Kentucky","country":"US","elevation":775,"lat":37.686000824,"lon":-85.9250030518,"tz":"America\/New_York"},{"Destination_airport":"ELD","flights":186,"icao":"KELD","iata":"ELD","name":"South Arkansas Regional At Goodwin Field","city":"El Dorado","state":"Arkansas","country":"US","elevation":277,"lat":33.2210006714,"lon":-92.8133010864,"tz":"America\/Chicago"},{"Destination_airport":"ELM","flights":1744,"icao":"KELM","iata":"ELM","name":"Elmira Corning Regional Airport","city":"Elmira\/Corning","state":"New-York","country":"US","elevation":954,"lat":42.1599006653,"lon":-76.8916015625,"tz":"America\/New_York"},{"Destination_airport":"ELN","flights":9,"icao":"KELN","iata":"ELN","name":"Bowers Field","city":"Ellensburg","state":"Washington","country":"US","elevation":1764,"lat":47.03300095,"lon":-120.5309982,"tz":"America\/Los_Angeles"},{"Destination_airport":"ELP","flights":16034,"icao":"KELP","iata":"ELP","name":"El Paso International Airport","city":"El Paso","state":"Texas","country":"US","elevation":3959,"lat":31.80719948,"lon":-106.3779984,"tz":"America\/Denver"},{"Destination_airport":"END","flights":5,"icao":"KEND","iata":"END","name":"Vance Air Force Base","city":"Enid","state":"Oklahoma","country":"US","elevation":1307,"lat":36.3391990662,"lon":-97.9164962769,"tz":"America\/Chicago"},{"Destination_airport":"ERI","flights":2161,"icao":"KERI","iata":"ERI","name":"Erie International Tom Ridge Field","city":"Erie","state":"Pennsylvania","country":"US","elevation":732,"lat":42.0831270134,"lon":-80.1738667488,"tz":"America\/New_York"},{"Destination_airport":"ESC","flights":438,"icao":"KESC","iata":"ESC","name":"Delta County Airport","city":"Escanaba","state":"Michigan","country":"US","elevation":609,"lat":45.7226982117,"lon":-87.0936965942,"tz":"America\/Detroit"},{"Destination_airport":"ESF","flights":187,"icao":"KESF","iata":"ESF","name":"Esler Regional Airport","city":"Alexandria","state":"Louisiana","country":"US","elevation":112,"lat":31.3948993683,"lon":-92.2957992554,"tz":"America\/Chicago"},{"Destination_airport":"ESN","flights":2,"icao":"KESN","iata":"ESN","name":"Easton Newnam Field","city":"Easton","state":"Maryland","country":"US","elevation":72,"lat":38.8041992188,"lon":-76.0690002441,"tz":"America\/New_York"},{"Destination_airport":"EUG","flights":3198,"icao":"KEUG","iata":"EUG","name":"Mahlon Sweet Field","city":"Eugene","state":"Oregon","country":"US","elevation":374,"lat":44.1245994568,"lon":-123.2119979858,"tz":"America\/Los_Angeles"},{"Destination_airport":"EVV","flights":2970,"icao":"KEVV","iata":"EVV","name":"Evansville Regional Airport","city":"Evansville","state":"Indiana","country":"US","elevation":418,"lat":38.0369987488,"lon":-87.5324020386,"tz":"America\/Chicago"},{"Destination_airport":"EWN","flights":674,"icao":"KEWN","iata":"EWN","name":"Coastal Carolina Regional Airport","city":"New Bern","state":"North-Carolina","country":"US","elevation":18,"lat":35.0730018616,"lon":-77.0429000854,"tz":"America\/New_York"},{"Destination_airport":"EWR","flights":82418,"icao":"KEWR","iata":"EWR","name":"Newark Liberty International Airport","city":"Newark","state":"New-Jersey","country":"US","elevation":18,"lat":40.6925010681,"lon":-74.1687011719,"tz":"America\/New_York"},{"Destination_airport":"EYW","flights":1410,"icao":"KEYW","iata":"EYW","name":"Key West International Airport","city":"Key West","state":"Florida","country":"US","elevation":3,"lat":24.5561008453,"lon":-81.7595977783,"tz":"America\/New_York"},{"Destination_airport":"FAI","flights":4586,"icao":"PAFA","iata":"FAI","name":"Fairbanks International Airport","city":"Fairbanks","state":"Alaska","country":"US","elevation":439,"lat":64.81510162,"lon":-147.8560028,"tz":"America\/Anchorage"},{"Destination_airport":"FAM","flights":1,"icao":"KFAM","iata":"FAM","name":"Farmington Regional Airport","city":"Farmington","state":"Missouri","country":"US","elevation":946,"lat":37.76110077,"lon":-90.4285965,"tz":"America\/Chicago"},{"Destination_airport":"FAR","flights":3078,"icao":"KFAR","iata":"FAR","name":"Hector International Airport","city":"Fargo","state":"North-Dakota","country":"US","elevation":902,"lat":46.9207000732,"lon":-96.8158035278,"tz":"America\/Chicago"},{"Destination_airport":"FAT","flights":4151,"icao":"KFAT","iata":"FAT","name":"Fresno Yosemite International Airport","city":"Fresno","state":"California","country":"US","elevation":336,"lat":36.7761993408,"lon":-119.7180023193,"tz":"America\/Los_Angeles"},{"Destination_airport":"FAY","flights":1855,"icao":"KFAY","iata":"FAY","name":"Fayetteville Regional Grannis Field","city":"Fayetteville","state":"North-Carolina","country":"US","elevation":189,"lat":34.9911994934,"lon":-78.8803024292,"tz":"America\/New_York"},{"Destination_airport":"FBK","flights":204,"icao":"PAFB","iata":"FBK","name":"Ladd AAF Airfield","city":"Fairbanks\/Ft Wainwright","state":"Alaska","country":"US","elevation":454,"lat":64.83750153,"lon":-147.6139984,"tz":"America\/Anchorage"},{"Destination_airport":"FCA","flights":2535,"icao":"KGPI","iata":"FCA","name":"Glacier Park International Airport","city":"Kalispell","state":"Montana","country":"US","elevation":2977,"lat":48.3105010986,"lon":-114.2559967041,"tz":"America\/Denver"},{"Destination_airport":"FCH","flights":1,"icao":"KFCH","iata":"FCH","name":"Fresno Chandler Executive Airport","city":"Fresno","state":"California","country":"US","elevation":279,"lat":36.73239899,"lon":-119.8199997,"tz":"America\/Los_Angeles"},{"Destination_airport":"FCM","flights":1,"icao":"KFCM","iata":"FCM","name":"Flying Cloud Airport","city":"Minneapolis","state":"Minnesota","country":"US","elevation":906,"lat":44.8272018433,"lon":-93.4570999146,"tz":"America\/Chicago"},{"Destination_airport":"FDY","flights":50,"icao":"KFDY","iata":"FDY","name":"Findlay Airport","city":"Findlay","state":"Ohio","country":"US","elevation":813,"lat":41.0135002136,"lon":-83.6687011719,"tz":"America\/New_York"},{"Destination_airport":"FEP","flights":1,"icao":"KFEP","iata":"FEP","name":"Albertus Airport","city":"Freeport","state":"Illinois","country":"US","elevation":859,"lat":42.2462005615,"lon":-89.5820007324,"tz":"America\/Chicago"},{"Destination_airport":"FET","flights":1,"icao":"KFET","iata":"FET","name":"Fremont Municipal Airport","city":"Fremont","state":"Nebraska","country":"US","elevation":1204,"lat":41.44910049,"lon":-96.52020264,"tz":"America\/Chicago"},{"Destination_airport":"FFM","flights":9,"icao":"KFFM","iata":"FFM","name":"Fergus Falls Municipal Einar Mickelson Field","city":"Fergus Falls","state":"Minnesota","country":"US","elevation":1183,"lat":46.28440094,"lon":-96.15670013,"tz":"America\/Chicago"},{"Destination_airport":"FFO","flights":12,"icao":"KFFO","iata":"FFO","name":"Wright Patterson Air Force Base","city":"Dayton","state":"Ohio","country":"US","elevation":823,"lat":39.8260993958,"lon":-84.0483016968,"tz":"America\/New_York"},{"Destination_airport":"FFT","flights":6,"icao":"KFFT","iata":"FFT","name":"Capital City Airport","city":"Frankfort","state":"Kentucky","country":"US","elevation":806,"lat":38.18249893,"lon":-84.90470123,"tz":"America\/New_York"},{"Destination_airport":"FLG","flights":522,"icao":"KFLG","iata":"FLG","name":"Flagstaff Pulliam Airport","city":"Flagstaff","state":"Arizona","country":"US","elevation":7014,"lat":35.13850021,"lon":-111.6709976,"tz":"America\/Phoenix"},{"Destination_airport":"FLL","flights":34950,"icao":"KFLL","iata":"FLL","name":"Fort Lauderdale Hollywood International Airport","city":"Fort Lauderdale","state":"Florida","country":"US","elevation":9,"lat":26.072599411,"lon":-80.1527023315,"tz":"America\/New_York"},{"Destination_airport":"FLO","flights":540,"icao":"KFLO","iata":"FLO","name":"Florence Regional Airport","city":"Florence","state":"South-Carolina","country":"US","elevation":146,"lat":34.1853981018,"lon":-79.7238998413,"tz":"America\/New_York"},{"Destination_airport":"FMN","flights":983,"icao":"KFMN","iata":"FMN","name":"Four Corners Regional Airport","city":"Farmington","state":"New-Mexico","country":"US","elevation":5506,"lat":36.7411994934,"lon":-108.2300033569,"tz":"America\/Denver"},{"Destination_airport":"FNT","flights":4109,"icao":"KFNT","iata":"FNT","name":"Bishop International Airport","city":"Flint","state":"Michigan","country":"US","elevation":782,"lat":42.9654006958,"lon":-83.743598938,"tz":"America\/Detroit"},{"Destination_airport":"FOD","flights":437,"icao":"KFOD","iata":"FOD","name":"Fort Dodge Regional Airport","city":"Fort Dodge","state":"Iowa","country":"US","elevation":1156,"lat":42.55149841,"lon":-94.19259644,"tz":"America\/Chicago"},{"Destination_airport":"FOE","flights":502,"icao":"KFOE","iata":"FOE","name":"Forbes Field","city":"Topeka","state":"Kansas","country":"US","elevation":1078,"lat":38.9509010315,"lon":-95.6635971069,"tz":"America\/Chicago"},{"Destination_airport":"FSD","flights":5304,"icao":"KFSD","iata":"FSD","name":"Joe Foss Field Airport","city":"Sioux Falls","state":"South-Dakota","country":"US","elevation":1429,"lat":43.5820007324,"lon":-96.741897583,"tz":"America\/Chicago"},{"Destination_airport":"FSM","flights":1339,"icao":"KFSM","iata":"FSM","name":"Fort Smith Regional Airport","city":"Fort Smith","state":"Arkansas","country":"US","elevation":469,"lat":35.3366012573,"lon":-94.367401123,"tz":"America\/Chicago"},{"Destination_airport":"FTW","flights":165,"icao":"KFTW","iata":"FTW","name":"Fort Worth Meacham International Airport","city":"Fort Worth","state":"Texas","country":"US","elevation":710,"lat":32.8198013306,"lon":-97.3623962402,"tz":"America\/Chicago"},{"Destination_airport":"FTY","flights":12,"icao":"KFTY","iata":"FTY","name":"Fulton County Airport Brown Field","city":"Atlanta","state":"Georgia","country":"US","elevation":841,"lat":33.7790985107,"lon":-84.5214004517,"tz":"America\/New_York"},{"Destination_airport":"FWA","flights":7332,"icao":"KFWA","iata":"FWA","name":"Fort Wayne International Airport","city":"Fort Wayne","state":"Indiana","country":"US","elevation":814,"lat":40.97850037,"lon":-85.19509888,"tz":"America\/Indiana\/Indianapolis"},{"Destination_airport":"FWH","flights":11,"icao":"KNFW","iata":"FWH","name":"Fort Worth Nas Jrb\/Carswell field","city":"Fort Worth","state":"Texas","country":"US","elevation":650,"lat":32.76919937,"lon":-97.4414978,"tz":"America\/Chicago"},{"Destination_airport":"FXE","flights":9,"icao":"KFXE","iata":"FXE","name":"Fort Lauderdale Executive Airport","city":"Fort Lauderdale","state":"Florida","country":"US","elevation":13,"lat":26.1972999573,"lon":-80.1707000732,"tz":"America\/New_York"},{"Destination_airport":"FYV","flights":873,"icao":"KFYV","iata":"FYV","name":"Drake Field","city":"Fayetteville","state":"Arkansas","country":"US","elevation":1251,"lat":36.0051002502,"lon":-94.1700973511,"tz":"America\/Chicago"},{"Destination_airport":"GAD","flights":8,"icao":"KGAD","iata":"GAD","name":"Northeast Alabama Regional Airport","city":"Gadsden","state":"Alabama","country":"US","elevation":569,"lat":33.9725990295,"lon":-86.0889968872,"tz":"America\/Chicago"},{"Destination_airport":"GBD","flights":214,"icao":"KGBD","iata":"GBD","name":"Great Bend Municipal Airport","city":"Great Bend","state":"Kansas","country":"US","elevation":1887,"lat":38.3442993164,"lon":-98.8591995239,"tz":"America\/Chicago"},{"Destination_airport":"GBG","flights":2,"icao":"KGBG","iata":"GBG","name":"Galesburg Municipal Airport","city":"Galesburg","state":"Illinois","country":"US","elevation":764,"lat":40.9379997253,"lon":-90.431098938,"tz":"America\/Chicago"},{"Destination_airport":"GCC","flights":427,"icao":"KGCC","iata":"GCC","name":"Gillette Campbell County Airport","city":"Gillette","state":"Wyoming","country":"US","elevation":4365,"lat":44.3488998413,"lon":-105.5390014648,"tz":"America\/Denver"},{"Destination_airport":"GCK","flights":546,"icao":"KGCK","iata":"GCK","name":"Garden City Regional Airport","city":"Garden City","state":"Kansas","country":"US","elevation":2891,"lat":37.9275016785,"lon":-100.7239990234,"tz":"America\/Chicago"},{"Destination_airport":"GCY","flights":3,"icao":"KGCY","iata":"GCY","name":"Greeneville Greene County Municipal Airport","city":"Greeneville","state":"Tennessee","country":"US","elevation":1608,"lat":36.19300079,"lon":-82.81510162,"tz":"America\/New_York"},{"Destination_airport":"GDC","flights":45,"icao":"KGYH","iata":"GDC","name":"Donaldson Center Airport","city":"Greenville","state":"South-Carolina","country":"US","elevation":955,"lat":34.7583007813,"lon":-82.3764038086,"tz":"America\/New_York"},{"Destination_airport":"GEG","flights":11721,"icao":"KGEG","iata":"GEG","name":"Spokane International Airport","city":"Spokane","state":"Washington","country":"US","elevation":2376,"lat":47.6198997498,"lon":-117.533996582,"tz":"America\/Los_Angeles"},{"Destination_airport":"GFK","flights":2271,"icao":"KGFK","iata":"GFK","name":"Grand Forks International Airport","city":"Grand Forks","state":"North-Dakota","country":"US","elevation":845,"lat":47.9492988586,"lon":-97.1761016846,"tz":"America\/Chicago"},{"Destination_airport":"GFL","flights":6,"icao":"KGFL","iata":"GFL","name":"Floyd Bennett Memorial Airport","city":"Glens Falls","state":"New-York","country":"US","elevation":328,"lat":43.3412017822,"lon":-73.6102981567,"tz":"America\/New_York"},{"Destination_airport":"GGE","flights":2,"icao":"KGGE","iata":"GGE","name":"Georgetown County Airport","city":"Georgetown","state":"South-Carolina","country":"US","elevation":39,"lat":33.3116989136,"lon":-79.3196029663,"tz":"America\/New_York"},{"Destination_airport":"GGG","flights":719,"icao":"KGGG","iata":"GGG","name":"East Texas Regional Airport","city":"Longview","state":"Texas","country":"US","elevation":365,"lat":32.3839988708,"lon":-94.7115020752,"tz":"America\/Chicago"},{"Destination_airport":"GJT","flights":1854,"icao":"KGJT","iata":"GJT","name":"Grand Junction Regional Airport","city":"Grand Junction","state":"Colorado","country":"US","elevation":4858,"lat":39.1223983765,"lon":-108.527000427,"tz":"America\/Denver"},{"Destination_airport":"GLH","flights":223,"icao":"KGLH","iata":"GLH","name":"Mid Delta Regional Airport","city":"Greenville","state":"Mississippi","country":"US","elevation":131,"lat":33.4828987122,"lon":-90.9856033325,"tz":"America\/Chicago"},{"Destination_airport":"GMU","flights":25,"icao":"KGMU","iata":"GMU","name":"Greenville Downtown Airport","city":"Greenville","state":"South-Carolina","country":"US","elevation":1048,"lat":34.8479003906,"lon":-82.3499984741,"tz":"America\/New_York"},{"Destination_airport":"GNV","flights":1878,"icao":"KGNV","iata":"GNV","name":"Gainesville Regional Airport","city":"Gainesville","state":"Florida","country":"US","elevation":152,"lat":29.6900997162,"lon":-82.2717971802,"tz":"America\/New_York"},{"Destination_airport":"GPT","flights":3223,"icao":"KGPT","iata":"GPT","name":"Gulfport Biloxi International Airport","city":"Gulfport","state":"Mississippi","country":"US","elevation":28,"lat":30.4073009491,"lon":-89.070098877,"tz":"America\/Chicago"},{"Destination_airport":"GRB","flights":5639,"icao":"KGRB","iata":"GRB","name":"Austin Straubel International Airport","city":"Green Bay","state":"Wisconsin","country":"US","elevation":695,"lat":44.4850997925,"lon":-88.1296005249,"tz":"America\/Chicago"},{"Destination_airport":"GRD","flights":1,"icao":"KGRD","iata":"GRD","name":"Greenwood County Airport","city":"Greenwood","state":"South-Carolina","country":"US","elevation":631,"lat":34.2486991882,"lon":-82.1591033936,"tz":"America\/New_York"},{"Destination_airport":"GRF","flights":1,"icao":"KGRF","iata":"GRF","name":"Gray Army Air Field","city":"Fort Lewis\/Tacoma","state":"Washington","country":"US","elevation":300,"lat":47.07920074,"lon":-122.5810013,"tz":"America\/Los_Angeles"},{"Destination_airport":"GRI","flights":524,"icao":"KGRI","iata":"GRI","name":"Central Nebraska Regional Airport","city":"Grand Island","state":"Nebraska","country":"US","elevation":1847,"lat":40.9674987793,"lon":-98.3096008301,"tz":"America\/Chicago"},{"Destination_airport":"GRK","flights":810,"icao":"KGRK","iata":"GRK","name":"Robert Gray  Army Air Field Airport","city":"Fort Hood\/Killeen","state":"Texas","country":"US","elevation":1015,"lat":31.067199707,"lon":-97.8289031982,"tz":"America\/Chicago"},{"Destination_airport":"GRR","flights":11120,"icao":"KGRR","iata":"GRR","name":"Gerald R. Ford International Airport","city":"Grand Rapids","state":"Michigan","country":"US","elevation":794,"lat":42.88079834,"lon":-85.52279663,"tz":"America\/Detroit"},{"Destination_airport":"GSB","flights":11,"icao":"KGSB","iata":"GSB","name":"Seymour Johnson Air Force Base","city":"Goldsboro","state":"North-Carolina","country":"US","elevation":109,"lat":35.33940125,"lon":-77.96060181,"tz":"America\/New_York"},{"Destination_airport":"GSO","flights":17973,"icao":"KGSO","iata":"GSO","name":"Piedmont Triad International Airport","city":"Greensboro","state":"North-Carolina","country":"US","elevation":925,"lat":36.0978012085,"lon":-79.9373016357,"tz":"America\/New_York"},{"Destination_airport":"GSP","flights":9807,"icao":"KGSP","iata":"GSP","name":"Greenville Spartanburg International Airport","city":"Greenville","state":"South-Carolina","country":"US","elevation":964,"lat":34.8956985474,"lon":-82.2189025879,"tz":"America\/New_York"},{"Destination_airport":"GTF","flights":3514,"icao":"KGTF","iata":"GTF","name":"Great Falls International Airport","city":"Great Falls","state":"Montana","country":"US","elevation":3680,"lat":47.48199844,"lon":-111.3710022,"tz":"America\/Denver"},{"Destination_airport":"GTR","flights":677,"icao":"KGTR","iata":"GTR","name":"Golden Triangle Regional Airport","city":"Columbus\/W Point\/Starkville","state":"Mississippi","country":"US","elevation":264,"lat":33.4502983093,"lon":-88.5914001465,"tz":"America\/Chicago"},{"Destination_airport":"GUP","flights":367,"icao":"KGUP","iata":"GUP","name":"Gallup Municipal Airport","city":"Gallup","state":"New-Mexico","country":"US","elevation":6472,"lat":35.511100769,"lon":-108.789001465,"tz":"America\/Denver"},{"Destination_airport":"GUS","flights":9,"icao":"KGUS","iata":"GUS","name":"Grissom ARB Airport","city":"Peru","state":"Indiana","country":"US","elevation":812,"lat":40.6481018066,"lon":-86.1520996094,"tz":"America\/Indiana\/Indianapolis"},{"Destination_airport":"GVL","flights":2,"icao":"KGVL","iata":"GVL","name":"Lee Gilmer Memorial Airport","city":"Gainesville","state":"Georgia","country":"US","elevation":1276,"lat":34.27259827,"lon":-83.8302002,"tz":"America\/New_York"},{"Destination_airport":"GWO","flights":10,"icao":"KGWO","iata":"GWO","name":"Greenwood Leflore Airport","city":"Greenwood","state":"Mississippi","country":"US","elevation":162,"lat":33.4943008423,"lon":-90.0847015381,"tz":"America\/Chicago"},{"Destination_airport":"GYY","flights":753,"icao":"KGYY","iata":"GYY","name":"Gary Chicago International Airport","city":"Gary","state":"Indiana","country":"US","elevation":591,"lat":41.6162986755,"lon":-87.4128036499,"tz":"America\/Chicago"},{"Destination_airport":"HFD","flights":6,"icao":"KHFD","iata":"HFD","name":"Hartford Brainard Airport","city":"Hartford","state":"Connecticut","country":"US","elevation":18,"lat":41.7366981506,"lon":-72.6493988037,"tz":"America\/New_York"},{"Destination_airport":"HGR","flights":169,"icao":"KHGR","iata":"HGR","name":"Hagerstown Regional Richard A Henson Field","city":"Hagerstown","state":"Maryland","country":"US","elevation":703,"lat":39.707901,"lon":-77.72949982,"tz":"America\/New_York"},{"Destination_airport":"HIF","flights":50,"icao":"KHIF","iata":"HIF","name":"Hill Air Force Base","city":"Ogden","state":"Utah","country":"US","elevation":4789,"lat":41.1239013672,"lon":-111.9729995728,"tz":"America\/Denver"},{"Destination_airport":"HII","flights":315,"icao":"KHII","iata":"HII","name":"Lake Havasu City Airport","city":"Lake Havasu City","state":"Arizona","country":"US","elevation":783,"lat":34.57109833,"lon":-114.3580017,"tz":"America\/Los_Angeles"},{"Destination_airport":"HKS","flights":82,"icao":"KHKS","iata":"HKS","name":"Hawkins Field","city":"Jackson","state":"Mississippi","country":"US","elevation":341,"lat":32.33449936,"lon":-90.22219849,"tz":"America\/Chicago"},{"Destination_airport":"HKY","flights":53,"icao":"KHKY","iata":"HKY","name":"Hickory Regional Airport","city":"Hickory","state":"North-Carolina","country":"US","elevation":1190,"lat":35.74110031,"lon":-81.38950348,"tz":"America\/New_York"},{"Destination_airport":"HLG","flights":1,"icao":"KHLG","iata":"HLG","name":"Wheeling Ohio County Airport","city":"Wheeling","state":"West-Virginia","country":"US","elevation":1195,"lat":40.1749992371,"lon":-80.6463012695,"tz":"America\/New_York"},{"Destination_airport":"HLM","flights":11,"icao":"KHLM","iata":"HLM","name":"Park Township Airport","city":"Holland","state":"Michigan","country":"US","elevation":603,"lat":42.7958984375,"lon":-86.1620025635,"tz":"America\/Detroit"},{"Destination_airport":"HLN","flights":1863,"icao":"KHLN","iata":"HLN","name":"Helena Regional Airport","city":"Helena","state":"Montana","country":"US","elevation":3877,"lat":46.6068000793,"lon":-111.983001709,"tz":"America\/Denver"},{"Destination_airport":"HMN","flights":25,"icao":"KHMN","iata":"HMN","name":"Holloman Air Force Base","city":"Alamogordo","state":"New-Mexico","country":"US","elevation":4093,"lat":32.8525009155,"lon":-106.1070022583,"tz":"America\/Denver"},{"Destination_airport":"HNL","flights":18068,"icao":"PHNL","iata":"HNL","name":"Honolulu International Airport","city":"Honolulu","state":"Hawaii","country":"US","elevation":13,"lat":21.3187007904,"lon":-157.9219970703,"tz":"Pacific\/Honolulu"},{"Destination_airport":"HOB","flights":269,"icao":"KHOB","iata":"HOB","name":"Lea County Regional Airport","city":"Hobbs","state":"New-Mexico","country":"US","elevation":3661,"lat":32.6875,"lon":-103.2170029,"tz":"America\/Denver"},{"Destination_airport":"HON","flights":155,"icao":"KHON","iata":"HON","name":"Huron Regional Airport","city":"Huron","state":"South-Dakota","country":"US","elevation":1289,"lat":44.3852005005,"lon":-98.2285003662,"tz":"America\/Chicago"},{"Destination_airport":"HOT","flights":314,"icao":"KHOT","iata":"HOT","name":"Memorial Field","city":"Hot Springs","state":"Iowa","country":"US","elevation":540,"lat":34.4780006409,"lon":-93.0961990356,"tz":"America\/Chicago"},{"Destination_airport":"HOU","flights":21076,"icao":"KHOU","iata":"HOU","name":"William P Hobby Airport","city":"Houston","state":"Texas","country":"US","elevation":46,"lat":29.64539909,"lon":-95.27890015,"tz":"America\/Chicago"},{"Destination_airport":"HRO","flights":182,"icao":"KHRO","iata":"HRO","name":"Boone County Airport","city":"Harrison","state":"Arkansas","country":"US","elevation":1365,"lat":36.2615013123,"lon":-93.1547012329,"tz":"America\/Chicago"},{"Destination_airport":"HSH","flights":2,"icao":"KHND","iata":"HSH","name":"Henderson Executive Airport","city":"Las Vegas","state":"Nevada","country":"US","elevation":2492,"lat":35.9728012085,"lon":-115.1340026855,"tz":"America\/Los_Angeles"},{"Destination_airport":"HSI","flights":2,"icao":"KHSI","iata":"HSI","name":"Hastings Municipal Airport","city":"Hastings","state":"Nebraska","country":"US","elevation":1961,"lat":40.6053009033,"lon":-98.4279022217,"tz":"America\/Chicago"},{"Destination_airport":"HSV","flights":6842,"icao":"KHSV","iata":"HSV","name":"Huntsville International Carl T Jones Field","city":"Huntsville","state":"Alabama","country":"US","elevation":629,"lat":34.6371994019,"lon":-86.775100708,"tz":"America\/Chicago"},{"Destination_airport":"HUA","flights":1,"icao":"KHUA","iata":"HUA","name":"Redstone Army Air Field","city":"Redstone Arsnl Huntsville","state":"Alabama","country":"US","elevation":684,"lat":34.67869949,"lon":-86.68479919,"tz":"America\/Chicago"},{"Destination_airport":"HUF","flights":139,"icao":"KHUF","iata":"HUF","name":"Terre Haute International Hulman Field","city":"Terre Haute","state":"Indiana","country":"US","elevation":589,"lat":39.451499939,"lon":-87.3076019287,"tz":"America\/Indiana\/Indianapolis"},{"Destination_airport":"HUM","flights":2,"icao":"KHUM","iata":"HUM","name":"Houma Terrebonne Airport","city":"Houma","state":"Louisiana","country":"US","elevation":10,"lat":29.5664997101,"lon":-90.6604003906,"tz":"America\/Chicago"},{"Destination_airport":"HUT","flights":4,"icao":"KHUT","iata":"HUT","name":"Hutchinson Municipal Airport","city":"Hutchinson","state":"Kansas","country":"US","elevation":1543,"lat":38.0654983521,"lon":-97.8606033325,"tz":"America\/Chicago"},{"Destination_airport":"HVN","flights":453,"icao":"KHVN","iata":"HVN","name":"Tweed New Haven Airport","city":"New Haven","state":"Connecticut","country":"US","elevation":12,"lat":41.26369858,"lon":-72.88680267,"tz":"America\/New_York"},{"Destination_airport":"HVR","flights":69,"icao":"KHVR","iata":"HVR","name":"Havre City County Airport","city":"Havre","state":"Montana","country":"US","elevation":2591,"lat":48.54299927,"lon":-109.762001,"tz":"America\/Denver"},{"Destination_airport":"HYS","flights":268,"icao":"KHYS","iata":"HYS","name":"Hays Regional Airport","city":"Hays","state":"Kansas","country":"US","elevation":1999,"lat":38.84220123,"lon":-99.27320099,"tz":"America\/Chicago"},{"Destination_airport":"IAB","flights":24,"icao":"KIAB","iata":"IAB","name":"Mc Connell Air Force Base","city":"Wichita","state":"Kansas","country":"US","elevation":1371,"lat":37.62189865,"lon":-97.26820374,"tz":"America\/Chicago"},{"Destination_airport":"IAD","flights":48053,"icao":"KIAD","iata":"IAD","name":"Washington Dulles International Airport","city":"Dulles","state":"Virginia","country":"US","elevation":312,"lat":38.94449997,"lon":-77.45580292,"tz":"America\/New_York"},{"Destination_airport":"IAH","flights":83960,"icao":"KIAH","iata":"IAH","name":"George Bush Intercontinental Houston Airport","city":"Houston","state":"Texas","country":"US","elevation":97,"lat":29.9843997955,"lon":-95.3414001465,"tz":"America\/Chicago"},{"Destination_airport":"ICT","flights":8999,"icao":"KICT","iata":"ICT","name":"Wichita Mid Continent Airport","city":"Wichita","state":"Kansas","country":"US","elevation":1333,"lat":37.6498985291,"lon":-97.4330978394,"tz":"America\/Chicago"},{"Destination_airport":"IDA","flights":1446,"icao":"KIDA","iata":"IDA","name":"Idaho Falls Regional Airport","city":"Idaho Falls","state":"Idaho","country":"US","elevation":4744,"lat":43.5145988464,"lon":-112.0709991455,"tz":"America\/Boise"},{"Destination_airport":"IDI","flights":1,"icao":"KIDI","iata":"IDI","name":"Indiana County\/Jimmy Stewart Fld\/ Airport","city":"Indiana","state":"Pennsylvania","country":"US","elevation":1405,"lat":40.63219833,"lon":-79.10549927,"tz":"America\/New_York"},{"Destination_airport":"IKK","flights":1,"icao":"KIKK","iata":"IKK","name":"Greater Kankakee Airport","city":"Kankakee","state":"Illinois","country":"US","elevation":630,"lat":41.0713996887,"lon":-87.8462982178,"tz":"America\/Chicago"},{"Destination_airport":"ILE","flights":723,"icao":"KILE","iata":"ILE","name":"Skylark Field","city":"Killeen","state":"Texas","country":"US","elevation":848,"lat":31.0858001709,"lon":-97.6865005493,"tz":"America\/Chicago"},{"Destination_airport":"ILG","flights":247,"icao":"KILG","iata":"ILG","name":"New Castle Airport","city":"Wilmington","state":"Delaware","country":"US","elevation":80,"lat":39.67869949,"lon":-75.60649872,"tz":"America\/New_York"},{"Destination_airport":"ILM","flights":2947,"icao":"KILM","iata":"ILM","name":"Wilmington International Airport","city":"Wilmington","state":"North-Carolina","country":"US","elevation":32,"lat":34.2705993652,"lon":-77.9026031494,"tz":"America\/New_York"},{"Destination_airport":"ILN","flights":10503,"icao":"KILN","iata":"ILN","name":"Airborne Airpark","city":"Wilmington","state":"Ohio","country":"US","elevation":1077,"lat":39.427898407,"lon":-83.792098999,"tz":"America\/New_York"},{"Destination_airport":"IMT","flights":408,"icao":"KIMT","iata":"IMT","name":"Ford Airport","city":"Iron Mountain Kingsford","state":"Michigan","country":"US","elevation":1182,"lat":45.8184013367,"lon":-88.1145019531,"tz":"America\/Chicago"},{"Destination_airport":"IND","flights":44625,"icao":"KIND","iata":"IND","name":"Indianapolis International Airport","city":"Indianapolis","state":"Indiana","country":"US","elevation":797,"lat":39.717300415,"lon":-86.2944030762,"tz":"America\/Indiana\/Indianapolis"},{"Destination_airport":"IPL","flights":300,"icao":"KIPL","iata":"IPL","name":"Imperial County Airport","city":"Imperial","state":"California","country":"US","elevation":-54,"lat":32.8342018127,"lon":-115.57900238,"tz":"America\/Los_Angeles"},{"Destination_airport":"IPT","flights":326,"icao":"KIPT","iata":"IPT","name":"Williamsport Regional Airport","city":"Williamsport","state":"Pennsylvania","country":"US","elevation":529,"lat":41.2417984009,"lon":-76.9210968018,"tz":"America\/New_York"},{"Destination_airport":"IRK","flights":104,"icao":"KIRK","iata":"IRK","name":"Kirksville Regional Airport","city":"Kirksville","state":"Missouri","country":"US","elevation":966,"lat":40.09349823,"lon":-92.5448989868,"tz":"America\/Chicago"},{"Destination_airport":"IRS","flights":3,"icao":"KIRS","iata":"IRS","name":"Kirsch Municipal Airport","city":"Sturgis","state":"Michigan","country":"US","elevation":924,"lat":41.81330109,"lon":-85.43900299,"tz":"America\/Detroit"},{"Destination_airport":"ISM","flights":7,"icao":"KISM","iata":"ISM","name":"Kissimmee Gateway Airport","city":"Orlando","state":"Florida","country":"US","elevation":82,"lat":28.2898006439,"lon":-81.4371032715,"tz":"America\/New_York"},{"Destination_airport":"ISN","flights":406,"icao":"KISN","iata":"ISN","name":"Sloulin Field International Airport","city":"Williston","state":"North-Dakota","country":"US","elevation":1982,"lat":48.177898407,"lon":-103.641998291,"tz":"America\/Chicago"},{"Destination_airport":"ISO","flights":497,"icao":"KISO","iata":"ISO","name":"Kinston Regional Jetport At Stallings Field","city":"Kinston","state":"North-Carolina","country":"US","elevation":93,"lat":35.331401825,"lon":-77.6088027954,"tz":"America\/New_York"},{"Destination_airport":"ITH","flights":1262,"icao":"KITH","iata":"ITH","name":"Ithaca Tompkins Regional Airport","city":"Ithaca","state":"New-York","country":"US","elevation":1099,"lat":42.4910011292,"lon":-76.4583969116,"tz":"America\/New_York"},{"Destination_airport":"ITO","flights":2191,"icao":"PHTO","iata":"ITO","name":"Hilo International Airport","city":"Hilo","state":"Hawaii","country":"US","elevation":38,"lat":19.7213993073,"lon":-155.0480041504,"tz":"Pacific\/Honolulu"},{"Destination_airport":"JAC","flights":1255,"icao":"KJAC","iata":"JAC","name":"Jackson Hole Airport","city":"Jackson","state":"Wyoming","country":"US","elevation":6451,"lat":43.6072998047,"lon":-110.7379989624,"tz":"America\/Denver"},{"Destination_airport":"JAN","flights":7412,"icao":"KJAN","iata":"JAN","name":"Jackson Evers International Airport","city":"Jackson","state":"Mississippi","country":"US","elevation":346,"lat":32.3111991882,"lon":-90.0758972168,"tz":"America\/Chicago"},{"Destination_airport":"JAX","flights":20370,"icao":"KJAX","iata":"JAX","name":"Jacksonville International Airport","city":"Jacksonville","state":"Florida","country":"US","elevation":30,"lat":30.4941005707,"lon":-81.6878967285,"tz":"America\/New_York"},{"Destination_airport":"JBR","flights":144,"icao":"KJBR","iata":"JBR","name":"Jonesboro Municipal Airport","city":"Jonesboro","state":"Arkansas","country":"US","elevation":262,"lat":35.8316993713,"lon":-90.6464004517,"tz":"America\/Chicago"},{"Destination_airport":"JEF","flights":6,"icao":"KJEF","iata":"JEF","name":"Jefferson City Memorial Airport","city":"Jefferson City","state":"Missouri","country":"US","elevation":549,"lat":38.5912017822,"lon":-92.1560974121,"tz":"America\/Chicago"},{"Destination_airport":"JFK","flights":55353,"icao":"KJFK","iata":"JFK","name":"John F Kennedy International Airport","city":"New York","state":"New-York","country":"US","elevation":13,"lat":40.63980103,"lon":-73.77890015,"tz":"America\/New_York"},{"Destination_airport":"JHW","flights":330,"icao":"KJHW","iata":"JHW","name":"Chautauqua County-Jamestown Airport","city":"Jamestown","state":"New-York","country":"US","elevation":1723,"lat":42.15340042,"lon":-79.25800323,"tz":"America\/New_York"},{"Destination_airport":"JLN","flights":432,"icao":"KJLN","iata":"JLN","name":"Joplin Regional Airport","city":"Joplin","state":"Missouri","country":"US","elevation":981,"lat":37.1517982483,"lon":-94.498298645,"tz":"America\/Chicago"},{"Destination_airport":"JMS","flights":190,"icao":"KJMS","iata":"JMS","name":"Jamestown Regional Airport","city":"Jamestown","state":"North-Dakota","country":"US","elevation":1500,"lat":46.92969894,"lon":-98.67819977,"tz":"America\/Chicago"},{"Destination_airport":"JNU","flights":3154,"icao":"PAJN","iata":"JNU","name":"Juneau International Airport","city":"Juneau","state":"Alaska","country":"US","elevation":21,"lat":58.3549995422,"lon":-134.5760040283,"tz":"America\/Juneau"},{"Destination_airport":"JST","flights":326,"icao":"KJST","iata":"JST","name":"John Murtha Johnstown Cambria County Airport","city":"Johnstown","state":"Pennsylvania","country":"US","elevation":2284,"lat":40.3161010742,"lon":-78.8339004517,"tz":"America\/New_York"},{"Destination_airport":"JWN","flights":1,"icao":"OITZ","iata":"JWN","name":"Zanjan Airport","city":"","state":"Zanjan","country":"IR","elevation":5382,"lat":36.7737007141,"lon":48.3594017029,"tz":"Asia\/Tehran"},{"Destination_airport":"JXN","flights":22,"icao":"KJXN","iata":"JXN","name":"Jackson County Reynolds Field","city":"Jackson","state":"Michigan","country":"US","elevation":1001,"lat":42.2597999573,"lon":-84.4593963623,"tz":"America\/Detroit"},{"Destination_airport":"KDK","flights":27,"icao":"PAKD","iata":"KDK","name":"Kodiak Municipal Airport","city":"Kodiak","state":"Alaska","country":"US","elevation":139,"lat":57.8059005737,"lon":-152.3739929199,"tz":"America\/Anchorage"},{"Destination_airport":"KTN","flights":2370,"icao":"PAKT","iata":"KTN","name":"Ketchikan International Airport","city":"Ketchikan","state":"Alaska","country":"US","elevation":89,"lat":55.35559845,"lon":-131.7140045,"tz":"America\/Sitka"},{"Destination_airport":"LAF","flights":577,"icao":"KLAF","iata":"LAF","name":"Purdue University Airport","city":"Lafayette","state":"Indiana","country":"US","elevation":606,"lat":40.4123001099,"lon":-86.9368972778,"tz":"America\/Indiana\/Indianapolis"},{"Destination_airport":"LAL","flights":4,"icao":"KLAL","iata":"LAL","name":"Lakeland Linder Regional Airport","city":"Lakeland","state":"Florida","country":"US","elevation":142,"lat":27.988899231,"lon":-82.0186004639,"tz":"America\/New_York"},{"Destination_airport":"LAM","flights":6,"icao":"KLAM","iata":"LAM","name":"Los Alamos Airport","city":"Los Alamos","state":"New-Mexico","country":"US","elevation":7171,"lat":35.8797988892,"lon":-106.2689971924,"tz":"America\/Denver"},{"Destination_airport":"LAN","flights":4656,"icao":"KLAN","iata":"LAN","name":"Capital City Airport","city":"Lansing","state":"Michigan","country":"US","elevation":861,"lat":42.7787017822,"lon":-84.5874023438,"tz":"America\/Detroit"},{"Destination_airport":"LAR","flights":216,"icao":"KLAR","iata":"LAR","name":"Laramie Regional Airport","city":"Laramie","state":"Wyoming","country":"US","elevation":7284,"lat":41.3120994568,"lon":-105.6750030518,"tz":"America\/Denver"},{"Destination_airport":"LAS","flights":60214,"icao":"KLAS","iata":"LAS","name":"Harry Reid International Airport","city":"Las Vegas","state":"Nevada","country":"US","elevation":2181,"lat":36.08010101,"lon":-115.1520004,"tz":"America\/Los_Angeles"},{"Destination_airport":"LAW","flights":736,"icao":"KLAW","iata":"LAW","name":"Lawton Fort Sill Regional Airport","city":"Lawton","state":"Oklahoma","country":"US","elevation":1110,"lat":34.5676994324,"lon":-98.4166030884,"tz":"America\/Chicago"},{"Destination_airport":"LAX","flights":84077,"icao":"KLAX","iata":"LAX","name":"Los Angeles International Airport","city":"Los Angeles","state":"California","country":"US","elevation":125,"lat":33.94250107,"lon":-118.4079971,"tz":"America\/Los_Angeles"},{"Destination_airport":"LBB","flights":7045,"icao":"KLBB","iata":"LBB","name":"Lubbock Preston Smith International Airport","city":"Lubbock","state":"Texas","country":"US","elevation":3282,"lat":33.6636009216,"lon":-101.8229980469,"tz":"America\/Chicago"},{"Destination_airport":"LBF","flights":357,"icao":"KLBF","iata":"LBF","name":"North Platte Regional Airport Lee Bird Field","city":"North Platte","state":"Nebraska","country":"US","elevation":2777,"lat":41.12620163,"lon":-100.6839981,"tz":"America\/Chicago"},{"Destination_airport":"LBL","flights":305,"icao":"KLBL","iata":"LBL","name":"Liberal Mid-America Regional Airport","city":"Liberal","state":"Kansas","country":"US","elevation":2885,"lat":37.0442009,"lon":-100.9599991,"tz":"America\/Chicago"},{"Destination_airport":"LCH","flights":1195,"icao":"KLCH","iata":"LCH","name":"Lake Charles Regional Airport","city":"Lake Charles","state":"Louisiana","country":"US","elevation":15,"lat":30.1261005402,"lon":-93.2232971191,"tz":"America\/Chicago"},{"Destination_airport":"LCI","flights":3,"icao":"KLCI","iata":"LCI","name":"Laconia Municipal Airport","city":"Laconia","state":"New-Hampshire","country":"US","elevation":545,"lat":43.5727005005,"lon":-71.4188995361,"tz":"America\/New_York"},{"Destination_airport":"LCK","flights":2614,"icao":"KLCK","iata":"LCK","name":"Rickenbacker International Airport","city":"Columbus","state":"Ohio","country":"US","elevation":744,"lat":39.8138008118,"lon":-82.9278030396,"tz":"America\/New_York"},{"Destination_airport":"LEW","flights":1,"icao":"KLEW","iata":"LEW","name":"Auburn Lewiston Municipal Airport","city":"Auburn\/Lewiston","state":"Maine","country":"US","elevation":288,"lat":44.048500061,"lon":-70.2835006714,"tz":"America\/New_York"},{"Destination_airport":"LEX","flights":6377,"icao":"KLEX","iata":"LEX","name":"Blue Grass Airport","city":"Lexington","state":"Kentucky","country":"US","elevation":979,"lat":38.0364990234,"lon":-84.6059036255,"tz":"America\/New_York"},{"Destination_airport":"LFK","flights":3,"icao":"KLFK","iata":"LFK","name":"Angelina County Airport","city":"Lufkin","state":"Texas","country":"US","elevation":296,"lat":31.2339992523,"lon":-94.75,"tz":"America\/Chicago"},{"Destination_airport":"LFT","flights":3029,"icao":"KLFT","iata":"LFT","name":"Lafayette Regional Airport","city":"Lafayette","state":"Louisiana","country":"US","elevation":42,"lat":30.20529938,"lon":-91.98760223,"tz":"America\/Chicago"},{"Destination_airport":"LGA","flights":53479,"icao":"KLGA","iata":"LGA","name":"La Guardia Airport","city":"New York","state":"New-York","country":"US","elevation":21,"lat":40.77719879,"lon":-73.87259674,"tz":"America\/New_York"},{"Destination_airport":"LGD","flights":340,"icao":"KLGD","iata":"LGD","name":"La Grande Union County Airport","city":"La Grande","state":"Oregon","country":"US","elevation":2717,"lat":45.2901992798,"lon":-118.0070037842,"tz":"America\/Los_Angeles"},{"Destination_airport":"LGU","flights":21,"icao":"KLGU","iata":"LGU","name":"Logan Cache Airport","city":"Logan","state":"Utah","country":"US","elevation":4457,"lat":41.7911987305,"lon":-111.8519973755,"tz":"America\/Denver"},{"Destination_airport":"LHV","flights":1,"icao":"KLHV","iata":"LHV","name":"William T. Piper Memorial Airport","city":"Lock Haven","state":"Pennsylvania","country":"US","elevation":556,"lat":41.13560104,"lon":-77.42230225,"tz":"America\/New_York"},{"Destination_airport":"LIT","flights":13226,"icao":"KLIT","iata":"LIT","name":"Adams Field","city":"Little Rock","state":"Arkansas","country":"US","elevation":262,"lat":34.7294006348,"lon":-92.2242965698,"tz":"America\/Chicago"},{"Destination_airport":"LMT","flights":1020,"icao":"KLMT","iata":"LMT","name":"Klamath Falls Airport","city":"Klamath Falls","state":"Oregon","country":"US","elevation":4095,"lat":42.1561012268,"lon":-121.733001709,"tz":"America\/Los_Angeles"},{"Destination_airport":"LNK","flights":2731,"icao":"KLNK","iata":"LNK","name":"Lincoln Airport","city":"Lincoln","state":"Nebraska","country":"US","elevation":1219,"lat":40.8510017395,"lon":-96.7592010498,"tz":"America\/Chicago"},{"Destination_airport":"LNS","flights":143,"icao":"KLNS","iata":"LNS","name":"Lancaster Airport","city":"Lancaster","state":"Pennsylvania","country":"US","elevation":403,"lat":40.1217002869,"lon":-76.2960968018,"tz":"America\/New_York"},{"Destination_airport":"LOZ","flights":8,"icao":"KLOZ","iata":"LOZ","name":"London Corbin Airport Magee Field","city":"London","state":"Kentucky","country":"US","elevation":1212,"lat":37.0821990967,"lon":-84.0848999023,"tz":"America\/New_York"},{"Destination_airport":"LRD","flights":4007,"icao":"KLRD","iata":"LRD","name":"Laredo International Airport","city":"Laredo","state":"Texas","country":"US","elevation":508,"lat":27.543800354,"lon":-99.4616012573,"tz":"America\/Chicago"},{"Destination_airport":"LRU","flights":85,"icao":"KLRU","iata":"LRU","name":"Las Cruces International Airport","city":"Las Cruces","state":"New-Mexico","country":"US","elevation":4456,"lat":32.2893981934,"lon":-106.9219970703,"tz":"America\/Denver"},{"Destination_airport":"LSE","flights":2504,"icao":"KLSE","iata":"LSE","name":"La Crosse Municipal Airport","city":"La Crosse","state":"Wisconsin","country":"US","elevation":655,"lat":43.87900162,"lon":-91.25669861,"tz":"America\/Chicago"},{"Destination_airport":"LSF","flights":48,"icao":"KLSF","iata":"LSF","name":"Lawson Army Air Field (Fort Benning)","city":"Fort Benning(Columbus)","state":"Georgia","country":"US","elevation":232,"lat":32.3372993469,"lon":-84.9913024902,"tz":"America\/Chicago"},{"Destination_airport":"LSV","flights":176,"icao":"KLSV","iata":"LSV","name":"Nellis Air Force Base","city":"Las Vegas","state":"Nevada","country":"US","elevation":1870,"lat":36.2361984253,"lon":-115.033996582,"tz":"America\/Los_Angeles"},{"Destination_airport":"LTS","flights":3,"icao":"KLTS","iata":"LTS","name":"Altus Air Force Base","city":"Altus","state":"Oklahoma","country":"US","elevation":1382,"lat":34.667098999,"lon":-99.2667007446,"tz":"America\/Chicago"},{"Destination_airport":"LUF","flights":9,"icao":"KLUF","iata":"LUF","name":"Luke Air Force Base","city":"Glendale","state":"Arizona","country":"US","elevation":1085,"lat":33.5349998474,"lon":-112.3830032349,"tz":"America\/Phoenix"},{"Destination_airport":"LUK","flights":158,"icao":"KLUK","iata":"LUK","name":"Cincinnati Municipal Airport Lunken Field","city":"Cincinnati","state":"Ohio","country":"US","elevation":483,"lat":39.10329819,"lon":-84.41860199,"tz":"America\/New_York"},{"Destination_airport":"LUL","flights":1,"icao":"KLUL","iata":"LUL","name":"Hesler Noble Field","city":"Laurel","state":"Mississippi","country":"US","elevation":238,"lat":31.6725997925,"lon":-89.172203064,"tz":"America\/Chicago"},{"Destination_airport":"LWC","flights":5,"icao":"KLWC","iata":"LWC","name":"Lawrence Municipal Airport","city":"Lawrence","state":"Kansas","country":"US","elevation":833,"lat":39.01119995,"lon":-95.21659851,"tz":"America\/Chicago"},{"Destination_airport":"LWS","flights":1510,"icao":"KLWS","iata":"LWS","name":"Lewiston Nez Perce County Airport","city":"Lewiston","state":"Idaho","country":"US","elevation":1442,"lat":46.3745002747,"lon":-117.0149993896,"tz":"America\/Los_Angeles"},{"Destination_airport":"LYH","flights":609,"icao":"KLYH","iata":"LYH","name":"Lynchburg Regional Preston Glenn Field","city":"Lynchburg","state":"Virginia","country":"US","elevation":938,"lat":37.3266983032,"lon":-79.2004013062,"tz":"America\/New_York"},{"Destination_airport":"MAE","flights":1,"icao":"KMAE","iata":"MAE","name":"Madera Municipal Airport","city":"Madera","state":"California","country":"US","elevation":255,"lat":36.9886016846,"lon":-120.1119995117,"tz":"America\/Los_Angeles"},{"Destination_airport":"MAF","flights":5872,"icao":"KMAF","iata":"MAF","name":"Midland International Airport","city":"Midland","state":"Texas","country":"US","elevation":2871,"lat":31.9424991608,"lon":-102.202003479,"tz":"America\/Chicago"},{"Destination_airport":"MBS","flights":3262,"icao":"KMBS","iata":"MBS","name":"MBS International Airport","city":"Saginaw","state":"Michigan","country":"US","elevation":668,"lat":43.5329017639,"lon":-84.0795974731,"tz":"America\/Detroit"},{"Destination_airport":"MCC","flights":22,"icao":"KMCC","iata":"MCC","name":"Mc Clellan Airfield","city":"Sacramento","state":"California","country":"US","elevation":77,"lat":38.66759872,"lon":-121.401001,"tz":"America\/Los_Angeles"},{"Destination_airport":"MCE","flights":387,"icao":"KMCE","iata":"MCE","name":"Merced Regional Macready Field","city":"Merced","state":"California","country":"US","elevation":155,"lat":37.28469849,"lon":-120.5139999,"tz":"America\/Los_Angeles"},{"Destination_airport":"MCF","flights":13,"icao":"KMCF","iata":"MCF","name":"MacDill Air Force Base","city":"Tampa","state":"Florida","country":"US","elevation":14,"lat":27.84930038,"lon":-82.52120209,"tz":"America\/New_York"},{"Destination_airport":"MCI","flights":39159,"icao":"KMCI","iata":"MCI","name":"Kansas City International Airport","city":"Kansas City","state":"Missouri","country":"US","elevation":1026,"lat":39.2975997925,"lon":-94.7138977051,"tz":"America\/Chicago"},{"Destination_airport":"MCN","flights":1226,"icao":"KMCN","iata":"MCN","name":"Middle Georgia Regional Airport","city":"Macon","state":"Georgia","country":"US","elevation":354,"lat":32.6927986145,"lon":-83.6492004395,"tz":"America\/New_York"},{"Destination_airport":"MCO","flights":62048,"icao":"KMCO","iata":"MCO","name":"Orlando International Airport","city":"Orlando","state":"Florida","country":"US","elevation":96,"lat":28.4293994904,"lon":-81.3089981079,"tz":"America\/New_York"},{"Destination_airport":"MCW","flights":534,"icao":"KMCW","iata":"MCW","name":"Mason City Municipal Airport","city":"Mason City","state":"Iowa","country":"US","elevation":1213,"lat":43.1577987671,"lon":-93.3312988281,"tz":"America\/Chicago"},{"Destination_airport":"MDD","flights":1,"icao":"KMDD","iata":"MDD","name":"Midland Airpark","city":"Midland","state":"Texas","country":"US","elevation":2803,"lat":32.0364990234,"lon":-102.1009979248,"tz":"America\/Chicago"},{"Destination_airport":"MDH","flights":20,"icao":"KMDH","iata":"MDH","name":"Southern Illinois Airport","city":"Carbondale\/Murphysboro","state":"Illinois","country":"US","elevation":411,"lat":37.7780990601,"lon":-89.2519989014,"tz":"America\/Chicago"},{"Destination_airport":"MDT","flights":9883,"icao":"KMDT","iata":"MDT","name":"Harrisburg International Airport","city":"Harrisburg","state":"Pennsylvania","country":"US","elevation":310,"lat":40.1935005188,"lon":-76.7633972168,"tz":"America\/New_York"},{"Destination_airport":"MDW","flights":27645,"icao":"KMDW","iata":"MDW","name":"Chicago Midway International Airport","city":"Chicago","state":"Illinois","country":"US","elevation":620,"lat":41.7859992981,"lon":-87.7524032593,"tz":"America\/Chicago"},{"Destination_airport":"MEI","flights":418,"icao":"KMEI","iata":"MEI","name":"Key Field","city":"Meridian","state":"Mississippi","country":"US","elevation":297,"lat":32.3325996399,"lon":-88.7518997192,"tz":"America\/Chicago"},{"Destination_airport":"MEJ","flights":1,"icao":"KGKJ","iata":"MEJ","name":"Port Meadville Airport","city":"Meadville","state":"Pennsylvania","country":"US","elevation":1399,"lat":41.62649918,"lon":-80.21469879,"tz":"America\/New_York"},{"Destination_airport":"MEM","flights":69866,"icao":"KMEM","iata":"MEM","name":"Memphis International Airport","city":"Memphis","state":"Tennessee","country":"US","elevation":341,"lat":35.0424003601,"lon":-89.9766998291,"tz":"America\/Chicago"},{"Destination_airport":"MFD","flights":45,"icao":"KMFD","iata":"MFD","name":"Mansfield Lahm Regional Airport","city":"Mansfield","state":"Ohio","country":"US","elevation":1297,"lat":40.8213996887,"lon":-82.5166015625,"tz":"America\/New_York"},{"Destination_airport":"MFR","flights":2856,"icao":"KMFR","iata":"MFR","name":"Rogue Valley International Medford Airport","city":"Medford","state":"Oregon","country":"US","elevation":1335,"lat":42.3741989136,"lon":-122.8730010986,"tz":"America\/Los_Angeles"},{"Destination_airport":"MGM","flights":2220,"icao":"KMGM","iata":"MGM","name":"Montgomery Regional (Dannelly Field) Airport","city":"Montgomery","state":"Alabama","country":"US","elevation":221,"lat":32.30059814,"lon":-86.39399719,"tz":"America\/Chicago"},{"Destination_airport":"MGW","flights":270,"icao":"KMGW","iata":"MGW","name":"Morgantown Municipal Walter L. Bill Hart Field","city":"Morgantown","state":"West-Virginia","country":"US","elevation":1248,"lat":39.64289856,"lon":-79.91629791,"tz":"America\/New_York"},{"Destination_airport":"MGY","flights":53,"icao":"KMGY","iata":"MGY","name":"Dayton Wright Brothers Airport","city":"Dayton","state":"Ohio","country":"US","elevation":957,"lat":39.5890007019,"lon":-84.224899292,"tz":"America\/New_York"},{"Destination_airport":"MHK","flights":462,"icao":"KMHK","iata":"MHK","name":"Manhattan Regional Airport","city":"Manhattan","state":"Kansas","country":"US","elevation":1057,"lat":39.1409988403,"lon":-96.6707992554,"tz":"America\/Chicago"},{"Destination_airport":"MHL","flights":1,"icao":"KMHL","iata":"MHL","name":"Marshall Memorial Municipal Airport","city":"Marshall","state":"Missouri","country":"US","elevation":779,"lat":39.0957984924,"lon":-93.2029037476,"tz":"America\/Chicago"},{"Destination_airport":"MHR","flights":1011,"icao":"KMHR","iata":"MHR","name":"Sacramento Mather Airport","city":"Sacramento","state":"California","country":"US","elevation":99,"lat":38.55390167,"lon":-121.2979965,"tz":"America\/Los_Angeles"},{"Destination_airport":"MHT","flights":10791,"icao":"KMHT","iata":"MHT","name":"Manchester Airport","city":"Manchester","state":"New-Hampshire","country":"US","elevation":266,"lat":42.932598114,"lon":-71.4356994629,"tz":"America\/New_York"},{"Destination_airport":"MIA","flights":47563,"icao":"KMIA","iata":"MIA","name":"Miami International Airport","city":"Miami","state":"Florida","country":"US","elevation":8,"lat":25.7931995392,"lon":-80.2906036377,"tz":"America\/New_York"},{"Destination_airport":"MIB","flights":13,"icao":"KMIB","iata":"MIB","name":"Minot Air Force Base","city":"Minot","state":"North-Dakota","country":"US","elevation":1667,"lat":48.41559982,"lon":-101.3580017,"tz":"America\/Chicago"},{"Destination_airport":"MIE","flights":50,"icao":"KMIE","iata":"MIE","name":"Delaware County Johnson Field","city":"Muncie","state":"Indiana","country":"US","elevation":937,"lat":40.2422981262,"lon":-85.3958969116,"tz":"America\/Indiana\/Indianapolis"},{"Destination_airport":"MIO","flights":17,"icao":"KMIO","iata":"MIO","name":"Miami Municipal Airport","city":"Miami","state":"Oklahoma","country":"US","elevation":808,"lat":36.909198761,"lon":-94.8874969482,"tz":"America\/Chicago"},{"Destination_airport":"MIQ","flights":2,"icao":"KMLE","iata":"MIQ","name":"Millard Airport","city":"Omaha","state":"Nebraska","country":"US","elevation":1051,"lat":41.1959991455,"lon":-96.1119995117,"tz":"America\/Chicago"},{"Destination_airport":"MIW","flights":1,"icao":"KMIW","iata":"MIW","name":"Marshalltown Municipal Airport","city":"Marshalltown","state":"Iowa","country":"US","elevation":974,"lat":42.112701416,"lon":-92.9178009033,"tz":"America\/Chicago"},{"Destination_airport":"MKC","flights":165,"icao":"KMKC","iata":"MKC","name":"Charles B. Wheeler Downtown Airport","city":"Kansas City","state":"Missouri","country":"US","elevation":759,"lat":39.1231994629,"lon":-94.5927963257,"tz":"America\/Chicago"},{"Destination_airport":"MKE","flights":30947,"icao":"KMKE","iata":"MKE","name":"General Mitchell International Airport","city":"Milwaukee","state":"Wisconsin","country":"US","elevation":723,"lat":42.9472007751,"lon":-87.8965988159,"tz":"America\/Chicago"},{"Destination_airport":"MKG","flights":601,"icao":"KMKG","iata":"MKG","name":"Muskegon County Airport","city":"Muskegon","state":"Michigan","country":"US","elevation":629,"lat":43.16949844,"lon":-86.23819733,"tz":"America\/Detroit"},{"Destination_airport":"MKL","flights":127,"icao":"KMKL","iata":"MKL","name":"Mc Kellar Sipes Regional Airport","city":"Jackson","state":"Tennessee","country":"US","elevation":434,"lat":35.59989929,"lon":-88.91560364,"tz":"America\/Chicago"},{"Destination_airport":"MKT","flights":2,"icao":"KMKT","iata":"MKT","name":"Mankato Regional Airport","city":"Mankato","state":"Minnesota","country":"US","elevation":1021,"lat":44.22159958,"lon":-93.91870117,"tz":"America\/Chicago"},{"Destination_airport":"MLU","flights":2210,"icao":"KMLU","iata":"MLU","name":"Monroe Regional Airport","city":"Monroe","state":"Louisiana","country":"US","elevation":79,"lat":32.5108985901,"lon":-92.0376968384,"tz":"America\/Chicago"},{"Destination_airport":"MMI","flights":41,"icao":"KMMI","iata":"MMI","name":"McMinn County Airport","city":"Athens","state":"Tennessee","country":"US","elevation":875,"lat":35.39730072,"lon":-84.56259918,"tz":"America\/New_York"},{"Destination_airport":"MML","flights":1,"icao":"KMML","iata":"MML","name":"Southwest Minnesota Regional-Marshall-Ryan Field","city":"Marshall","state":"Minnesota","country":"US","elevation":1183,"lat":44.45050049,"lon":-95.82189941,"tz":"America\/Chicago"},{"Destination_airport":"MNN","flights":9,"icao":"KMNN","iata":"MNN","name":"Marion Municipal Airport","city":"Marion","state":"Ohio","country":"US","elevation":993,"lat":40.6161994934,"lon":-83.0634994507,"tz":"America\/New_York"},{"Destination_airport":"MOB","flights":3615,"icao":"KMOB","iata":"MOB","name":"Mobile Regional Airport","city":"Mobile","state":"Alabama","country":"US","elevation":219,"lat":30.6912002563,"lon":-88.2427978516,"tz":"America\/Chicago"},{"Destination_airport":"MOD","flights":215,"icao":"KMOD","iata":"MOD","name":"Modesto City Co-Harry Sham Field","city":"Modesto","state":"California","country":"US","elevation":97,"lat":37.62580109,"lon":-120.9540024,"tz":"America\/Los_Angeles"},{"Destination_airport":"MOP","flights":4,"icao":"KMOP","iata":"MOP","name":"Mount Pleasant Municipal Airport","city":"Mount Pleasant","state":"Michigan","country":"US","elevation":755,"lat":43.6217002869,"lon":-84.7375030518,"tz":"America\/Detroit"},{"Destination_airport":"MOR","flights":7,"icao":"KMOR","iata":"MOR","name":"Moore Murrell Airport","city":"Morristown","state":"Tennessee","country":"US","elevation":1313,"lat":36.1794013977,"lon":-83.37550354,"tz":"America\/New_York"},{"Destination_airport":"MOT","flights":1271,"icao":"KMOT","iata":"MOT","name":"Minot International Airport","city":"Minot","state":"North-Dakota","country":"US","elevation":1716,"lat":48.2593994141,"lon":-101.2799987793,"tz":"America\/Chicago"},{"Destination_airport":"MPS","flights":1,"icao":"KOSA","iata":"MPS","name":"Mount Pleasant Regional Airport","city":"Mount Pleasant","state":"Texas","country":"US","elevation":364,"lat":33.09550095,"lon":-94.96150208,"tz":"America\/Chicago"},{"Destination_airport":"MQJ","flights":1,"icao":"UEMA","iata":"MQJ","name":"Moma Airport","city":"Honuu","state":"Chukot","country":"RU","elevation":656,"lat":66.4508590698,"lon":143.2615509033,"tz":"Asia\/Srednekolymsk"},{"Destination_airport":"MQT","flights":1440,"icao":"KSAW","iata":"MQT","name":"Sawyer International Airport","city":"Marquette","state":"Michigan","country":"US","elevation":1221,"lat":46.3535995483,"lon":-87.395401001,"tz":"America\/Detroit"},{"Destination_airport":"MRC","flights":105,"icao":"KMRC","iata":"MRC","name":"Maury County Airport","city":"Columbia\/Mount Pleasant","state":"Tennessee","country":"US","elevation":681,"lat":35.5541000366,"lon":-87.1789016724,"tz":"America\/Chicago"},{"Destination_airport":"MRI","flights":12,"icao":"PAMR","iata":"MRI","name":"Merrill Field","city":"Anchorage","state":"Iowa","country":"US","elevation":137,"lat":61.2135009766,"lon":-149.8439941406,"tz":"America\/Anchorage"},{"Destination_airport":"MSN","flights":9028,"icao":"KMSN","iata":"MSN","name":"Dane County Regional Truax Field","city":"Madison","state":"Wisconsin","country":"US","elevation":887,"lat":43.1399002075,"lon":-89.3375015259,"tz":"America\/Chicago"},{"Destination_airport":"MSO","flights":3178,"icao":"KMSO","iata":"MSO","name":"Missoula International Airport","city":"Missoula","state":"Montana","country":"US","elevation":3206,"lat":46.91630173,"lon":-114.0910034,"tz":"America\/Denver"},{"Destination_airport":"MSP","flights":98570,"icao":"KMSP","iata":"MSP","name":"Minneapolis-St Paul International\/Wold-Chamberlain Airport","city":"Minneapolis","state":"Minnesota","country":"US","elevation":841,"lat":44.8819999695,"lon":-93.2218017578,"tz":"America\/Chicago"},{"Destination_airport":"MSY","flights":29853,"icao":"KMSY","iata":"MSY","name":"Louis Armstrong New Orleans International Airport","city":"New Orleans","state":"Louisiana","country":"US","elevation":4,"lat":29.9934005737,"lon":-90.2580032349,"tz":"America\/Chicago"},{"Destination_airport":"MTJ","flights":737,"icao":"KMTJ","iata":"MTJ","name":"Montrose Regional Airport","city":"Montrose","state":"Colorado","country":"US","elevation":5759,"lat":38.5097999573,"lon":-107.893997192,"tz":"America\/Denver"},{"Destination_airport":"MTN","flights":11,"icao":"KMTN","iata":"MTN","name":"Martin State Airport","city":"Baltimore","state":"Maryland","country":"US","elevation":21,"lat":39.32569885,"lon":-76.4138031,"tz":"America\/New_York"},{"Destination_airport":"MUO","flights":24,"icao":"KMUO","iata":"MUO","name":"Mountain Home Air Force Base","city":"Mountain Home","state":"Idaho","country":"US","elevation":2996,"lat":43.043598175,"lon":-115.8720016479,"tz":"America\/Boise"},{"Destination_airport":"MUT","flights":1,"icao":"KMUT","iata":"MUT","name":"Muscatine Municipal Airport","city":"Muscatine","state":"Iowa","country":"US","elevation":547,"lat":41.3678016663,"lon":-91.1482009888,"tz":"America\/Chicago"},{"Destination_airport":"MVN","flights":50,"icao":"KMVN","iata":"MVN","name":"Mount Vernon Airport","city":"Mount Vernon","state":"Illinois","country":"US","elevation":480,"lat":38.3233985901,"lon":-88.8588027954,"tz":"America\/Chicago"},{"Destination_airport":"MVW","flights":146,"icao":"KBVS","iata":"MVW","name":"Skagit Regional Airport","city":"Burlington\/Mount Vernon","state":"Washington","country":"US","elevation":144,"lat":48.4709014893,"lon":-122.4209976196,"tz":"America\/Los_Angeles"},{"Destination_airport":"MWA","flights":492,"icao":"KMWA","iata":"MWA","name":"Williamson County Regional Airport","city":"Marion","state":"Illinois","country":"US","elevation":472,"lat":37.75500107,"lon":-89.01110077,"tz":"America\/Chicago"},{"Destination_airport":"MWC","flights":1,"icao":"KMWC","iata":"MWC","name":"Lawrence J Timmerman Airport","city":"Milwaukee","state":"Wisconsin","country":"US","elevation":745,"lat":43.1104011536,"lon":-88.0344009399,"tz":"America\/Chicago"},{"Destination_airport":"MWH","flights":841,"icao":"KMWH","iata":"MWH","name":"Grant Co International Airport","city":"Moses Lake","state":"Washington","country":"US","elevation":1189,"lat":47.20769882,"lon":-119.3199997,"tz":"America\/Los_Angeles"},{"Destination_airport":"MXF","flights":7,"icao":"KMXF","iata":"MXF","name":"Maxwell Air Force Base","city":"Montgomery","state":"Alabama","country":"US","elevation":171,"lat":32.382900238,"lon":-86.3657989502,"tz":"America\/Chicago"},{"Destination_airport":"MYF","flights":2,"icao":"KMYF","iata":"MYF","name":"Montgomery Field","city":"San Diego","state":"California","country":"US","elevation":427,"lat":32.815700531,"lon":-117.1399993896,"tz":"America\/Los_Angeles"},{"Destination_airport":"MYR","flights":6420,"icao":"KMYR","iata":"MYR","name":"Myrtle Beach International Airport","city":"Myrtle Beach","state":"South-Carolina","country":"US","elevation":25,"lat":33.6796989441,"lon":-78.9282989502,"tz":"America\/New_York"},{"Destination_airport":"MZZ","flights":1,"icao":"KMZZ","iata":"MZZ","name":"Marion Municipal Airport","city":"Marion","state":"Indiana","country":"US","elevation":859,"lat":40.4898986816,"lon":-85.6797027588,"tz":"America\/Indiana\/Indianapolis"},{"Destination_airport":"NBG","flights":14,"icao":"KNBG","iata":"NBG","name":"New Orleans Nas Jrb\/Alvin Callender Field\/ Airport","city":"New Orleans","state":"Louisiana","country":"US","elevation":2,"lat":29.82530022,"lon":-90.03500366,"tz":"America\/Chicago"},{"Destination_airport":"NEW","flights":23,"icao":"KNEW","iata":"NEW","name":"Lakefront Airport","city":"New Orleans","state":"Louisiana","country":"US","elevation":8,"lat":30.0424003601,"lon":-90.0282974243,"tz":"America\/Chicago"},{"Destination_airport":"NFL","flights":6,"icao":"KNFL","iata":"NFL","name":"Fallon Naval Air Station \/Van Voorhis Field","city":"Fallon","state":"Nevada","country":"US","elevation":3934,"lat":39.41659927,"lon":-118.7009964,"tz":"America\/Los_Angeles"},{"Destination_airport":"NGP","flights":1,"icao":"KNGP","iata":"NGP","name":"Corpus Christi Naval Air Station\/Truax Field","city":"Corpus Christi","state":"Texas","country":"US","elevation":18,"lat":27.69260025,"lon":-97.29109955,"tz":"America\/Chicago"},{"Destination_airport":"NIP","flights":34,"icao":"KNIP","iata":"NIP","name":"Jacksonville Naval Air Station","city":"Jacksonville","state":"Florida","country":"US","elevation":21,"lat":30.23579979,"lon":-81.68060303,"tz":"America\/New_York"},{"Destination_airport":"NJK","flights":8,"icao":"KNJK","iata":"NJK","name":"El Centro Naf Airport","city":"El Centro","state":"California","country":"US","elevation":-42,"lat":32.8292007446,"lon":-115.6719970703,"tz":"America\/Los_Angeles"},{"Destination_airport":"NKX","flights":45,"icao":"KNKX","iata":"NKX","name":"Miramar Marine Corps Air Station","city":"San Diego","state":"California","country":"US","elevation":477,"lat":32.86840057,"lon":-117.1429977,"tz":"America\/Los_Angeles"},{"Destination_airport":"NPA","flights":12,"icao":"KNPA","iata":"NPA","name":"Pensacola Naval Air Station\/Forrest Sherman field","city":"Pensacola","state":"Florida","country":"US","elevation":28,"lat":30.35269928,"lon":-87.31860352,"tz":"America\/Chicago"},{"Destination_airport":"NQA","flights":27,"icao":"KNQA","iata":"NQA","name":"Millington Regional Jetport Airport","city":"Millington","state":"Tennessee","country":"US","elevation":320,"lat":35.3567008972,"lon":-89.870300293,"tz":"America\/Chicago"},{"Destination_airport":"NQX","flights":21,"icao":"KNQX","iata":"NQX","name":"Key West Nas \/Boca Chica Field\/ Airport","city":"Key West","state":"Florida","country":"US","elevation":6,"lat":24.57579994,"lon":-81.68890381,"tz":"America\/New_York"},{"Destination_airport":"NZY","flights":133,"icao":"KNZY","iata":"NZY","name":"North Island Naval Air Station-Halsey Field","city":"San Diego","state":"California","country":"US","elevation":26,"lat":32.69919968,"lon":-117.2149963,"tz":"America\/Los_Angeles"},{"Destination_airport":"OAJ","flights":852,"icao":"KOAJ","iata":"OAJ","name":"Albert J Ellis Airport","city":"Jacksonville","state":"North-Carolina","country":"US","elevation":94,"lat":34.8292007446,"lon":-77.6120986938,"tz":"America\/New_York"},{"Destination_airport":"OAK","flights":22096,"icao":"KOAK","iata":"OAK","name":"Metropolitan Oakland International Airport","city":"Oakland","state":"California","country":"US","elevation":9,"lat":37.7212982178,"lon":-122.2210006714,"tz":"America\/Los_Angeles"},{"Destination_airport":"OCF","flights":75,"icao":"KOCF","iata":"OCF","name":"Ocala International Jim Taylor Field","city":"Ocala","state":"Florida","country":"US","elevation":90,"lat":29.17259979,"lon":-82.22419739,"tz":"America\/New_York"},{"Destination_airport":"ODW","flights":249,"icao":"KOKH","iata":"ODW","name":"AJ Eisenberg Airport","city":"Oak Harbor","state":"Washington","country":"US","elevation":193,"lat":48.251499176,"lon":-122.674003601,"tz":"America\/Los_Angeles"},{"Destination_airport":"OFF","flights":7,"icao":"KOFF","iata":"OFF","name":"Offutt Air Force Base","city":"Omaha","state":"Nebraska","country":"US","elevation":1052,"lat":41.1183013916,"lon":-95.9124984741,"tz":"America\/Chicago"},{"Destination_airport":"OFK","flights":61,"icao":"KOFK","iata":"OFK","name":"Karl Stefan Memorial Airport","city":"Norfolk","state":"Nebraska","country":"US","elevation":1573,"lat":41.9855003357,"lon":-97.4350967407,"tz":"America\/Chicago"},{"Destination_airport":"OGB","flights":1,"icao":"KOGB","iata":"OGB","name":"Orangeburg Municipal Airport","city":"Orangeburg","state":"South-Carolina","country":"US","elevation":195,"lat":33.4567985535,"lon":-80.8594970703,"tz":"America\/New_York"},{"Destination_airport":"OGD","flights":126,"icao":"KOGD","iata":"OGD","name":"Ogden Hinckley Airport","city":"Ogden","state":"Utah","country":"US","elevation":4473,"lat":41.1958999634,"lon":-112.0120010376,"tz":"America\/Denver"},{"Destination_airport":"OGG","flights":6778,"icao":"PHOG","iata":"OGG","name":"Kahului Airport","city":"Kahului","state":"Hawaii","country":"US","elevation":54,"lat":20.8985996246,"lon":-156.4299926758,"tz":"Pacific\/Honolulu"},{"Destination_airport":"OGS","flights":138,"icao":"KOGS","iata":"OGS","name":"Ogdensburg International Airport","city":"Ogdensburg","state":"New-York","country":"US","elevation":297,"lat":44.6819000244,"lon":-75.4654998779,"tz":"America\/New_York"},{"Destination_airport":"OKC","flights":17372,"icao":"KOKC","iata":"OKC","name":"Will Rogers World Airport","city":"Oklahoma City","state":"Oklahoma","country":"US","elevation":1295,"lat":35.3931007385,"lon":-97.6007003784,"tz":"America\/Chicago"},{"Destination_airport":"OKK","flights":82,"icao":"KOKK","iata":"OKK","name":"Kokomo Municipal Airport","city":"Kokomo","state":"Indiana","country":"US","elevation":830,"lat":40.5281982422,"lon":-86.0589981079,"tz":"America\/Indiana\/Indianapolis"},{"Destination_airport":"OLM","flights":50,"icao":"KOLM","iata":"OLM","name":"Olympia Regional Airport","city":"Olympia","state":"Washington","country":"US","elevation":209,"lat":46.9693985,"lon":-122.9029999,"tz":"America\/Los_Angeles"},{"Destination_airport":"OLS","flights":87,"icao":"KOLS","iata":"OLS","name":"Nogales International Airport","city":"Nogales","state":"Arizona","country":"US","elevation":3955,"lat":31.4176998138,"lon":-110.8479995728,"tz":"America\/Phoenix"},{"Destination_airport":"OLU","flights":1,"icao":"KOLU","iata":"OLU","name":"Columbus Municipal Airport","city":"Columbus","state":"Nebraska","country":"US","elevation":1447,"lat":41.44800186,"lon":-97.34259796,"tz":"America\/Chicago"},{"Destination_airport":"OMA","flights":15601,"icao":"KOMA","iata":"OMA","name":"Eppley Airfield","city":"Omaha","state":"Nebraska","country":"US","elevation":984,"lat":41.3031997681,"lon":-95.8940963745,"tz":"America\/Chicago"},{"Destination_airport":"OPF","flights":221,"icao":"KOPF","iata":"OPF","name":"Opa-locka Executive Airport","city":"Miami","state":"Florida","country":"US","elevation":8,"lat":25.90699959,"lon":-80.27839661,"tz":"America\/New_York"},{"Destination_airport":"ORD","flights":160054,"icao":"KORD","iata":"ORD","name":"Chicago O'Hare International Airport","city":"Chicago","state":"Illinois","country":"US","elevation":672,"lat":41.97859955,"lon":-87.90480042,"tz":"America\/Chicago"},{"Destination_airport":"ORH","flights":694,"icao":"KORH","iata":"ORH","name":"Worcester Regional Airport","city":"Worcester","state":"Massachusetts","country":"US","elevation":1009,"lat":42.2672996521,"lon":-71.8757019043,"tz":"America\/New_York"},{"Destination_airport":"ORL","flights":9,"icao":"KORL","iata":"ORL","name":"Orlando Executive Airport","city":"Orlando","state":"Florida","country":"US","elevation":113,"lat":28.5454998016,"lon":-81.332901001,"tz":"America\/New_York"},{"Destination_airport":"OSH","flights":389,"icao":"KOSH","iata":"OSH","name":"Wittman Regional Airport","city":"Oshkosh","state":"Wisconsin","country":"US","elevation":808,"lat":43.9844017029,"lon":-88.5569992065,"tz":"America\/Chicago"},{"Destination_airport":"OSU","flights":3,"icao":"KOSU","iata":"OSU","name":"Ohio State University Airport","city":"Columbus","state":"Ohio","country":"US","elevation":905,"lat":40.0797996521,"lon":-83.0729980469,"tz":"America\/New_York"},{"Destination_airport":"OWA","flights":1,"icao":"KOWA","iata":"OWA","name":"Owatonna Degner Regional Airport","city":"Owatonna","state":"Minnesota","country":"US","elevation":1145,"lat":44.12340164,"lon":-93.26059723,"tz":"America\/Chicago"},{"Destination_airport":"OWB","flights":129,"icao":"KOWB","iata":"OWB","name":"Owensboro Daviess County Airport","city":"Owensboro","state":"Kentucky","country":"US","elevation":407,"lat":37.74010086,"lon":-87.16680145,"tz":"America\/Chicago"},{"Destination_airport":"OXR","flights":170,"icao":"KOXR","iata":"OXR","name":"Oxnard Airport","city":"Oxnard","state":"California","country":"US","elevation":45,"lat":34.2008018494,"lon":-119.2070007324,"tz":"America\/Los_Angeles"},{"Destination_airport":"PAH","flights":361,"icao":"KPAH","iata":"PAH","name":"Barkley Regional Airport","city":"Paducah","state":"Kentucky","country":"US","elevation":410,"lat":37.060798645,"lon":-88.7738037109,"tz":"America\/Chicago"},{"Destination_airport":"PAM","flights":40,"icao":"KPAM","iata":"PAM","name":"Tyndall Air Force Base","city":"Panama City","state":"Florida","country":"US","elevation":17,"lat":30.0695991516,"lon":-85.5754013062,"tz":"America\/Chicago"},{"Destination_airport":"PBF","flights":2,"icao":"KPBF","iata":"PBF","name":"Grider Field","city":"Pine Bluff","state":"Arkansas","country":"US","elevation":206,"lat":34.1730995178,"lon":-91.9356002808,"tz":"America\/Chicago"},{"Destination_airport":"PBG","flights":167,"icao":"KPBG","iata":"PBG","name":"Plattsburgh International Airport","city":"Plattsburgh","state":"New-York","country":"US","elevation":234,"lat":44.6509017944,"lon":-73.4681015015,"tz":"America\/New_York"},{"Destination_airport":"PBI","flights":17359,"icao":"KPBI","iata":"PBI","name":"Palm Beach International Airport","city":"West Palm Beach","state":"Florida","country":"US","elevation":19,"lat":26.6832008362,"lon":-80.0955963135,"tz":"America\/New_York"},{"Destination_airport":"PDK","flights":92,"icao":"KPDK","iata":"PDK","name":"DeKalb Peachtree Airport","city":"Atlanta","state":"Georgia","country":"US","elevation":1003,"lat":33.8755989075,"lon":-84.3020019531,"tz":"America\/New_York"},{"Destination_airport":"PDT","flights":745,"icao":"KPDT","iata":"PDT","name":"Eastern Oregon Regional At Pendleton Airport","city":"Pendleton","state":"Oregon","country":"US","elevation":1497,"lat":45.695098877,"lon":-118.841003418,"tz":"America\/Los_Angeles"},{"Destination_airport":"PDX","flights":33942,"icao":"KPDX","iata":"PDX","name":"Portland International Airport","city":"Portland","state":"Oregon","country":"US","elevation":31,"lat":45.58869934,"lon":-122.5979996,"tz":"America\/Los_Angeles"},{"Destination_airport":"PFN","flights":1249,"icao":"KPFN","iata":"PFN","name":"Panama City-Bay Co International Airport","city":"Panama City","state":"Florida","country":"US","elevation":20,"lat":30.2120990753,"lon":-85.682800293,"tz":"America\/Chicago"},{"Destination_airport":"PGD","flights":143,"icao":"KPGD","iata":"PGD","name":"Charlotte County Airport","city":"Punta Gorda","state":"Florida","country":"US","elevation":26,"lat":26.92020035,"lon":-81.9905014,"tz":"America\/New_York"},{"Destination_airport":"PGV","flights":393,"icao":"KPGV","iata":"PGV","name":"Pitt Greenville Airport","city":"Greenville","state":"North-Carolina","country":"US","elevation":26,"lat":35.6352005,"lon":-77.38529968,"tz":"America\/New_York"},{"Destination_airport":"PHD","flights":1,"icao":"KPHD","iata":"PHD","name":"Harry Clever Field","city":"New Philadelphia","state":"Ohio","country":"US","elevation":894,"lat":40.4709014893,"lon":-81.4197006226,"tz":"America\/New_York"},{"Destination_airport":"PHL","flights":82498,"icao":"KPHL","iata":"PHL","name":"Philadelphia International Airport","city":"Philadelphia","state":"Pennsylvania","country":"US","elevation":36,"lat":39.8718986511,"lon":-75.2410964966,"tz":"America\/New_York"},{"Destination_airport":"PHT","flights":1,"icao":"KPHT","iata":"PHT","name":"Henry County Airport","city":"Paris","state":"Tennessee","country":"US","elevation":580,"lat":36.3381996155,"lon":-88.3828964233,"tz":"America\/Chicago"},{"Destination_airport":"PHX","flights":70039,"icao":"KPHX","iata":"PHX","name":"Phoenix Sky Harbor International Airport","city":"Phoenix","state":"Arizona","country":"US","elevation":1135,"lat":33.434299469,"lon":-112.0120010376,"tz":"America\/Phoenix"},{"Destination_airport":"PIA","flights":4683,"icao":"KPIA","iata":"PIA","name":"Greater Peoria Regional Airport","city":"Peoria","state":"Illinois","country":"US","elevation":660,"lat":40.6641998291,"lon":-89.6932983398,"tz":"America\/Chicago"},{"Destination_airport":"PIB","flights":194,"icao":"KPIB","iata":"PIB","name":"Hattiesburg Laurel Regional Airport","city":"Hattiesburg\/Laurel","state":"Mississippi","country":"US","elevation":298,"lat":31.4671001434,"lon":-89.337097168,"tz":"America\/Chicago"},{"Destination_airport":"PIH","flights":826,"icao":"KPIH","iata":"PIH","name":"Pocatello Regional Airport","city":"Pocatello","state":"Idaho","country":"US","elevation":4452,"lat":42.9098014832,"lon":-112.5960006714,"tz":"America\/Boise"},{"Destination_airport":"PIR","flights":679,"icao":"KPIR","iata":"PIR","name":"Pierre Regional Airport","city":"Pierre","state":"South-Dakota","country":"US","elevation":1744,"lat":44.38270187,"lon":-100.2860031,"tz":"America\/Chicago"},{"Destination_airport":"PIT","flights":69753,"icao":"KPIT","iata":"PIT","name":"Pittsburgh International Airport","city":"Pittsburgh","state":"Pennsylvania","country":"US","elevation":1203,"lat":40.49150085,"lon":-80.23290253,"tz":"America\/New_York"},{"Destination_airport":"PKB","flights":240,"icao":"KPKB","iata":"PKB","name":"Mid Ohio Valley Regional Airport","city":"Parkersburg","state":"West-Virginia","country":"US","elevation":858,"lat":39.3451004028,"lon":-81.439201355,"tz":"America\/New_York"},{"Destination_airport":"PNC","flights":81,"icao":"KPNC","iata":"PNC","name":"Ponca City Regional Airport","city":"Ponca City","state":"Oklahoma","country":"US","elevation":1008,"lat":36.73199844,"lon":-97.09980011,"tz":"America\/Chicago"},{"Destination_airport":"PNE","flights":19,"icao":"KPNE","iata":"PNE","name":"Northeast Philadelphia Airport","city":"Philadelphia","state":"Pennsylvania","country":"US","elevation":120,"lat":40.08190155,"lon":-75.01059723,"tz":"America\/New_York"},{"Destination_airport":"PNS","flights":5340,"icao":"KPNS","iata":"PNS","name":"Pensacola Regional Airport","city":"Pensacola","state":"Florida","country":"US","elevation":121,"lat":30.473400116,"lon":-87.1865997314,"tz":"America\/Chicago"},{"Destination_airport":"POB","flights":176,"icao":"KPOB","iata":"POB","name":"Pope Air Force Base","city":"Fayetteville","state":"North-Carolina","country":"US","elevation":217,"lat":35.1708984375,"lon":-79.014503479,"tz":"America\/New_York"},{"Destination_airport":"POU","flights":2,"icao":"KPOU","iata":"POU","name":"Dutchess County Airport","city":"Poughkeepsie","state":"New-York","country":"US","elevation":165,"lat":41.6265983582,"lon":-73.8842010498,"tz":"America\/New_York"},{"Destination_airport":"PRB","flights":10,"icao":"KPRB","iata":"PRB","name":"Paso Robles Municipal Airport","city":"Paso Robles","state":"California","country":"US","elevation":840,"lat":35.67290115,"lon":-120.6269989,"tz":"America\/Los_Angeles"},{"Destination_airport":"PRC","flights":167,"icao":"KPRC","iata":"PRC","name":"Ernest A. Love Field","city":"Prescott","state":"Arizona","country":"US","elevation":5045,"lat":34.65449905,"lon":-112.4199982,"tz":"America\/Phoenix"},{"Destination_airport":"PSF","flights":3,"icao":"KPSF","iata":"PSF","name":"Pittsfield Municipal Airport","city":"Pittsfield","state":"Massachusetts","country":"US","elevation":1194,"lat":42.4267997742,"lon":-73.2929000854,"tz":"America\/New_York"},{"Destination_airport":"PUB","flights":740,"icao":"KPUB","iata":"PUB","name":"Pueblo Memorial Airport","city":"Pueblo","state":"Colorado","country":"US","elevation":4726,"lat":38.289100647,"lon":-104.4970016479,"tz":"America\/Denver"},{"Destination_airport":"PUC","flights":27,"icao":"KPUC","iata":"PUC","name":"Carbon County Regional\/Buck Davis Field","city":"Price","state":"Utah","country":"US","elevation":5957,"lat":39.61389923,"lon":-110.7509995,"tz":"America\/Denver"},{"Destination_airport":"PUW","flights":1090,"icao":"KPUW","iata":"PUW","name":"Pullman Moscow Regional Airport","city":"Pullman\/Moscow","state":"Washington","country":"US","elevation":2556,"lat":46.7439002991,"lon":-117.1100006104,"tz":"America\/Los_Angeles"},{"Destination_airport":"PVD","flights":16103,"icao":"KPVD","iata":"PVD","name":"Theodore Francis Green State Airport","city":"Providence","state":"Rhode-Island","country":"US","elevation":55,"lat":41.7326011658,"lon":-71.4204025269,"tz":"America\/New_York"},{"Destination_airport":"PVU","flights":103,"icao":"KPVU","iata":"PVU","name":"Provo Municipal Airport","city":"Provo","state":"Utah","country":"US","elevation":4497,"lat":40.2192001343,"lon":-111.7229995728,"tz":"America\/Denver"},{"Destination_airport":"PWA","flights":4,"icao":"KPWA","iata":"PWA","name":"Wiley Post Airport","city":"Oklahoma City","state":"Oklahoma","country":"US","elevation":1300,"lat":35.53419876,"lon":-97.64710236,"tz":"America\/Chicago"},{"Destination_airport":"PWM","flights":7468,"icao":"KPWM","iata":"PWM","name":"Portland International Jetport Airport","city":"Portland","state":"Maine","country":"US","elevation":76,"lat":43.64619827,"lon":-70.30930328,"tz":"America\/New_York"},{"Destination_airport":"PWT","flights":56,"icao":"KPWT","iata":"PWT","name":"Bremerton National Airport","city":"Bremerton","state":"Washington","country":"US","elevation":444,"lat":47.4902000427,"lon":-122.7649993896,"tz":"America\/Los_Angeles"},{"Destination_airport":"RAC","flights":1,"icao":"KRAC","iata":"RAC","name":"John H Batten Airport","city":"Racine","state":"Wisconsin","country":"US","elevation":674,"lat":42.7606010437,"lon":-87.8152008057,"tz":"America\/Chicago"},{"Destination_airport":"RAP","flights":2466,"icao":"KRAP","iata":"RAP","name":"Rapid City Regional Airport","city":"Rapid City","state":"South-Dakota","country":"US","elevation":3204,"lat":44.04529953,"lon":-103.0569992065,"tz":"America\/Denver"},{"Destination_airport":"RBG","flights":231,"icao":"KRBG","iata":"RBG","name":"Roseburg Regional Airport","city":"Roseburg","state":"Oregon","country":"US","elevation":529,"lat":43.2388000488,"lon":-123.3560028076,"tz":"America\/Los_Angeles"},{"Destination_airport":"RBL","flights":1,"icao":"KRBL","iata":"RBL","name":"Red Bluff Municipal Airport","city":"Red Bluff","state":"California","country":"US","elevation":352,"lat":40.1506996155,"lon":-122.2519989014,"tz":"America\/Los_Angeles"},{"Destination_airport":"RCA","flights":31,"icao":"KRCA","iata":"RCA","name":"Ellsworth Air Force Base","city":"Rapid City","state":"South-Dakota","country":"US","elevation":3276,"lat":44.14500046,"lon":-103.1039963,"tz":"America\/Denver"},{"Destination_airport":"RDD","flights":1107,"icao":"KRDD","iata":"RDD","name":"Redding Municipal Airport","city":"Redding","state":"California","country":"US","elevation":505,"lat":40.50899887,"lon":-122.2929993,"tz":"America\/Los_Angeles"},{"Destination_airport":"RDG","flights":259,"icao":"KRDG","iata":"RDG","name":"Reading Regional Carl A Spaatz Field","city":"Reading","state":"Pennsylvania","country":"US","elevation":344,"lat":40.3785018921,"lon":-75.9652023315,"tz":"America\/New_York"},{"Destination_airport":"RDM","flights":1699,"icao":"KRDM","iata":"RDM","name":"Roberts Field","city":"Redmond","state":"Oregon","country":"US","elevation":3080,"lat":44.2541008,"lon":-121.1500015,"tz":"America\/Los_Angeles"},{"Destination_airport":"RDU","flights":32957,"icao":"KRDU","iata":"RDU","name":"Raleigh Durham International Airport","city":"Raleigh\/Durham","state":"North-Carolina","country":"US","elevation":435,"lat":35.8776016235,"lon":-78.7874984741,"tz":"America\/New_York"},{"Destination_airport":"RFD","flights":7077,"icao":"KRFD","iata":"RFD","name":"Chicago Rockford International Airport","city":"Chicago\/Rockford","state":"Illinois","country":"US","elevation":742,"lat":42.195400238,"lon":-89.0971984863,"tz":"America\/Chicago"},{"Destination_airport":"RIC","flights":16274,"icao":"KRIC","iata":"RIC","name":"Richmond International Airport","city":"Richmond","state":"Virginia","country":"US","elevation":167,"lat":37.5051994324,"lon":-77.3197021484,"tz":"America\/New_York"},{"Destination_airport":"RID","flights":1,"icao":"KRID","iata":"RID","name":"Richmond Municipal Airport","city":"Richmond","state":"Indiana","country":"US","elevation":1140,"lat":39.7571983337,"lon":-84.8427963257,"tz":"America\/Indiana\/Indianapolis"},{"Destination_airport":"RIV","flights":499,"icao":"KRIV","iata":"RIV","name":"March ARB Airport","city":"Riverside","state":"California","country":"US","elevation":1536,"lat":33.88069916,"lon":-117.2590027,"tz":"America\/Los_Angeles"},{"Destination_airport":"RIW","flights":124,"icao":"KRIW","iata":"RIW","name":"Riverton Regional Airport","city":"Riverton","state":"Wyoming","country":"US","elevation":5525,"lat":43.064201355,"lon":-108.4599990845,"tz":"America\/Denver"},{"Destination_airport":"RKD","flights":133,"icao":"KRKD","iata":"RKD","name":"Knox County Regional Airport","city":"Rockland","state":"Maine","country":"US","elevation":56,"lat":44.06010056,"lon":-69.09919739,"tz":"America\/New_York"},{"Destination_airport":"RKS","flights":286,"icao":"KRKS","iata":"RKS","name":"Rock Springs Sweetwater County Airport","city":"Rock Springs","state":"Wyoming","country":"US","elevation":6764,"lat":41.59420013,"lon":-109.0650024,"tz":"America\/Denver"},{"Destination_airport":"RMG","flights":6,"icao":"KRMG","iata":"RMG","name":"Richard B Russell Airport","city":"Rome","state":"Georgia","country":"US","elevation":644,"lat":34.3506011963,"lon":-85.1579971313,"tz":"America\/New_York"},{"Destination_airport":"RND","flights":7,"icao":"KRND","iata":"RND","name":"Randolph Air Force Base","city":"Universal City","state":"Texas","country":"US","elevation":761,"lat":29.52969933,"lon":-98.27890015,"tz":"America\/Chicago"},{"Destination_airport":"RNO","flights":14612,"icao":"KRNO","iata":"RNO","name":"Reno Tahoe International Airport","city":"Reno","state":"Nevada","country":"US","elevation":4415,"lat":39.4990997314,"lon":-119.7679977417,"tz":"America\/Los_Angeles"},{"Destination_airport":"ROA","flights":4972,"icao":"KROA","iata":"ROA","name":"Roanoke Regional Woodrum Field","city":"Roanoke","state":"Virginia","country":"US","elevation":1175,"lat":37.3255004883,"lon":-79.975402832,"tz":"America\/New_York"},{"Destination_airport":"ROC","flights":15874,"icao":"KROC","iata":"ROC","name":"Greater Rochester International Airport","city":"Rochester","state":"New-York","country":"US","elevation":559,"lat":43.1189002991,"lon":-77.6724014282,"tz":"America\/New_York"},{"Destination_airport":"ROW","flights":516,"icao":"KROW","iata":"ROW","name":"Roswell International Air Center Airport","city":"Roswell","state":"New-Mexico","country":"US","elevation":3671,"lat":33.3016014099,"lon":-104.53099823,"tz":"America\/Denver"},{"Destination_airport":"RSN","flights":1,"icao":"KRSN","iata":"RSN","name":"Ruston Regional Airport","city":"Ruston","state":"Louisiana","country":"US","elevation":311,"lat":32.5144004822,"lon":-92.5916976929,"tz":"America\/Chicago"},{"Destination_airport":"RST","flights":3520,"icao":"KRST","iata":"RST","name":"Rochester International Airport","city":"Rochester","state":"Minnesota","country":"US","elevation":1317,"lat":43.9082984924,"lon":-92.5,"tz":"America\/Chicago"},{"Destination_airport":"RUI","flights":23,"icao":"KSRR","iata":"RUI","name":"Sierra Blanca Regional Airport","city":"Ruidoso","state":"New-Mexico","country":"US","elevation":6814,"lat":33.4627990723,"lon":-105.5350036621,"tz":"America\/Denver"},{"Destination_airport":"RUT","flights":207,"icao":"KRUT","iata":"RUT","name":"Rutland - Southern Vermont Regional Airport","city":"Rutland","state":"Vermont","country":"US","elevation":787,"lat":43.52939987,"lon":-72.94960022,"tz":"America\/New_York"},{"Destination_airport":"RVS","flights":1,"icao":"KRVS","iata":"RVS","name":"Richard Lloyd Jones Jr Airport","city":"Tulsa","state":"Oklahoma","country":"US","elevation":638,"lat":36.0396003723,"lon":-95.9845962524,"tz":"America\/Chicago"},{"Destination_airport":"RWI","flights":144,"icao":"KRWI","iata":"RWI","name":"Rocky Mount Wilson Regional Airport","city":"Rocky Mount","state":"North-Carolina","country":"US","elevation":159,"lat":35.856300354,"lon":-77.8918991089,"tz":"America\/New_York"},{"Destination_airport":"SAC","flights":3,"icao":"KSAC","iata":"SAC","name":"Sacramento Executive Airport","city":"Sacramento","state":"California","country":"US","elevation":24,"lat":38.5125007629,"lon":-121.4929962158,"tz":"America\/Los_Angeles"},{"Destination_airport":"SAD","flights":1,"icao":"KSAD","iata":"SAD","name":"Safford Regional Airport","city":"Safford","state":"Arizona","country":"US","elevation":3179,"lat":32.85480118,"lon":-109.6350021,"tz":"America\/Phoenix"},{"Destination_airport":"SAF","flights":65,"icao":"KSAF","iata":"SAF","name":"Santa Fe Municipal Airport","city":"Santa Fe","state":"New-Mexico","country":"US","elevation":6348,"lat":35.617099762,"lon":-106.088996887,"tz":"America\/Denver"},{"Destination_airport":"SAN","flights":27070,"icao":"KSAN","iata":"SAN","name":"San Diego International Airport","city":"San Diego","state":"California","country":"US","elevation":17,"lat":32.7336006165,"lon":-117.1900024414,"tz":"America\/Los_Angeles"},{"Destination_airport":"SAT","flights":22434,"icao":"KSAT","iata":"SAT","name":"San Antonio International Airport","city":"San Antonio","state":"Texas","country":"US","elevation":809,"lat":29.533700943,"lon":-98.4698028564,"tz":"America\/Chicago"},{"Destination_airport":"SAV","flights":6855,"icao":"KSAV","iata":"SAV","name":"Savannah Hilton Head International Airport","city":"Savannah","state":"Georgia","country":"US","elevation":50,"lat":32.12760162,"lon":-81.20210266,"tz":"America\/New_York"},{"Destination_airport":"SAW","flights":6,"icao":"LTFJ","iata":"SAW","name":"Sabiha Gokcen International Airport","city":"Istanbul","state":"Istanbul","country":"TR","elevation":312,"lat":40.898601532,"lon":29.3092002869,"tz":"Europe\/Istanbul"},{"Destination_airport":"SBA","flights":2133,"icao":"KSBA","iata":"SBA","name":"Santa Barbara Municipal Airport","city":"Santa Barbara","state":"California","country":"US","elevation":13,"lat":34.42620087,"lon":-119.8399963,"tz":"America\/Los_Angeles"},{"Destination_airport":"SBM","flights":3,"icao":"KSBM","iata":"SBM","name":"Sheboygan County Memorial Airport","city":"Sheboygan","state":"Wisconsin","country":"US","elevation":755,"lat":43.76959991,"lon":-87.85140228,"tz":"America\/Chicago"},{"Destination_airport":"SBN","flights":5849,"icao":"KSBN","iata":"SBN","name":"South Bend Regional Airport","city":"South Bend","state":"Indiana","country":"US","elevation":799,"lat":41.7086982727,"lon":-86.3172988892,"tz":"America\/Indiana\/Indianapolis"},{"Destination_airport":"SBP","flights":734,"icao":"KSBP","iata":"SBP","name":"San Luis County Regional Airport","city":"San Luis Obispo","state":"California","country":"US","elevation":212,"lat":35.2368011475,"lon":-120.641998291,"tz":"America\/Los_Angeles"},{"Destination_airport":"SBY","flights":465,"icao":"KSBY","iata":"SBY","name":"Salisbury Ocean City Wicomico Regional Airport","city":"Salisbury","state":"Maryland","country":"US","elevation":52,"lat":38.3404998779,"lon":-75.5102996826,"tz":"America\/New_York"},{"Destination_airport":"SCE","flights":1282,"icao":"KUNV","iata":"SCE","name":"University Park Airport","city":"State College","state":"Pennsylvania","country":"US","elevation":1239,"lat":40.8493003845,"lon":-77.8487014771,"tz":"America\/New_York"},{"Destination_airport":"SCF","flights":28,"icao":"KSDL","iata":"SCF","name":"Scottsdale Airport","city":"Scottsdale","state":"Arizona","country":"US","elevation":1510,"lat":33.6228981018,"lon":-111.9110031128,"tz":"America\/Phoenix"},{"Destination_airport":"SCK","flights":339,"icao":"KSCK","iata":"SCK","name":"Stockton Metropolitan Airport","city":"Stockton","state":"California","country":"US","elevation":33,"lat":37.8941993713,"lon":-121.2379989624,"tz":"America\/Los_Angeles"},{"Destination_airport":"SDM","flights":65,"icao":"KSDM","iata":"SDM","name":"Brown Field Municipal Airport","city":"San Diego","state":"California","country":"US","elevation":526,"lat":32.5722999573,"lon":-116.9800033569,"tz":"America\/Los_Angeles"},{"Destination_airport":"SEA","flights":53105,"icao":"KSEA","iata":"SEA","name":"Seattle Tacoma International Airport","city":"Seattle","state":"Washington","country":"US","elevation":433,"lat":47.4490013123,"lon":-122.3089981079,"tz":"America\/Los_Angeles"},{"Destination_airport":"SEE","flights":3,"icao":"KSEE","iata":"SEE","name":"Gillespie Field","city":"San Diego\/El Cajon","state":"California","country":"US","elevation":388,"lat":32.8261985779,"lon":-116.9720001221,"tz":"America\/Los_Angeles"},{"Destination_airport":"SEM","flights":1,"icao":"KSEM","iata":"SEM","name":"Craig Field","city":"Selma","state":"Alabama","country":"US","elevation":166,"lat":32.3438987732,"lon":-86.9878005981,"tz":"America\/Chicago"},{"Destination_airport":"SER","flights":28,"icao":"KSER","iata":"SER","name":"Freeman Municipal Airport","city":"Seymour","state":"Indiana","country":"US","elevation":583,"lat":38.9235992432,"lon":-85.9074020386,"tz":"America\/Indiana\/Indianapolis"},{"Destination_airport":"SFB","flights":2812,"icao":"KSFB","iata":"SFB","name":"Orlando Sanford International Airport","city":"Orlando","state":"Florida","country":"US","elevation":55,"lat":28.7775993347,"lon":-81.2375030518,"tz":"America\/New_York"},{"Destination_airport":"SFF","flights":89,"icao":"KSFF","iata":"SFF","name":"Felts Field","city":"Spokane","state":"Oregon","country":"US","elevation":1953,"lat":47.682800293,"lon":-117.3229980469,"tz":"America\/Los_Angeles"},{"Destination_airport":"SFO","flights":57187,"icao":"KSFO","iata":"SFO","name":"San Francisco International Airport","city":"San Francisco","state":"California","country":"US","elevation":13,"lat":37.6189994812,"lon":-122.375,"tz":"America\/Los_Angeles"},{"Destination_airport":"SGF","flights":4846,"icao":"KSGF","iata":"SGF","name":"Springfield Branson National Airport","city":"Springfield","state":"Missouri","country":"US","elevation":1268,"lat":37.24570084,"lon":-93.38860321,"tz":"America\/Chicago"},{"Destination_airport":"SGH","flights":4,"icao":"KSGH","iata":"SGH","name":"Springfield Beckley Municipal Airport","city":"Springfield","state":"Ohio","country":"US","elevation":1051,"lat":39.8403015137,"lon":-83.8402023315,"tz":"America\/New_York"},{"Destination_airport":"SGU","flights":336,"icao":"KSGU","iata":"SGU","name":"St George Municipal Airport","city":"St George","state":"Utah","country":"US","elevation":2941,"lat":37.0363888889,"lon":-113.510305556,"tz":"America\/Denver"},{"Destination_airport":"SHD","flights":219,"icao":"KSHD","iata":"SHD","name":"Shenandoah Valley Regional Airport","city":"Staunton\/Waynesboro\/Harrisonburg","state":"Virginia","country":"US","elevation":1201,"lat":38.2638015747,"lon":-78.8964004517,"tz":"America\/New_York"},{"Destination_airport":"SHN","flights":1,"icao":"KSHN","iata":"SHN","name":"Sanderson Field","city":"Shelton","state":"Washington","country":"US","elevation":273,"lat":47.2336006165,"lon":-123.1480026245,"tz":"America\/Los_Angeles"},{"Destination_airport":"SHR","flights":267,"icao":"KSHR","iata":"SHR","name":"Sheridan County Airport","city":"Sheridan","state":"Wyoming","country":"US","elevation":4021,"lat":44.7691993713,"lon":-106.9800033569,"tz":"America\/Denver"},{"Destination_airport":"SHV","flights":8353,"icao":"KSHV","iata":"SHV","name":"Shreveport Regional Airport","city":"Shreveport","state":"Louisiana","country":"US","elevation":258,"lat":32.4466018677,"lon":-93.8255996704,"tz":"America\/Chicago"},{"Destination_airport":"SIK","flights":1,"icao":"KSIK","iata":"SIK","name":"Sikeston Memorial Municipal Airport","city":"Sikeston","state":"Missouri","country":"US","elevation":315,"lat":36.8988990784,"lon":-89.5617980957,"tz":"America\/Chicago"},{"Destination_airport":"SJC","flights":18654,"icao":"KSJC","iata":"SJC","name":"Norman Y. Mineta San Jose International Airport","city":"San Jose","state":"California","country":"US","elevation":62,"lat":37.3625984192,"lon":-121.9290008545,"tz":"America\/Los_Angeles"},{"Destination_airport":"SJT","flights":965,"icao":"KSJT","iata":"SJT","name":"San Angelo Regional Mathis Field","city":"San Angelo","state":"Texas","country":"US","elevation":1919,"lat":31.3577003479,"lon":-100.4960021973,"tz":"America\/Chicago"},{"Destination_airport":"SKA","flights":8,"icao":"KSKA","iata":"SKA","name":"Fairchild Air Force Base","city":"Spokane","state":"Washington","country":"US","elevation":2461,"lat":47.6151008606,"lon":-117.65599823,"tz":"America\/Los_Angeles"},{"Destination_airport":"SKF","flights":28,"icao":"KSKF","iata":"SKF","name":"Lackland Air Force Base (Kelly Field Annex) Airport","city":"San Antonio","state":"Texas","country":"US","elevation":691,"lat":29.38419914,"lon":-98.58110046,"tz":"America\/Chicago"},{"Destination_airport":"SLB","flights":1,"icao":"KSLB","iata":"SLB","name":"Storm Lake Municipal Airport","city":"Storm Lake","state":"Iowa","country":"US","elevation":1488,"lat":42.5973014832,"lon":-95.2406997681,"tz":"America\/Chicago"},{"Destination_airport":"SLC","flights":45588,"icao":"KSLC","iata":"SLC","name":"Salt Lake City International Airport","city":"Salt Lake City","state":"Utah","country":"US","elevation":4227,"lat":40.7883987427,"lon":-111.9779968262,"tz":"America\/Denver"},{"Destination_airport":"SLE","flights":210,"icao":"KSLE","iata":"SLE","name":"McNary Field","city":"Salem","state":"Oregon","country":"US","elevation":214,"lat":44.90950012,"lon":-123.0029984,"tz":"America\/Los_Angeles"},{"Destination_airport":"SLN","flights":424,"icao":"KSLN","iata":"SLN","name":"Salina Municipal Airport","city":"Salina","state":"Kansas","country":"US","elevation":1288,"lat":38.7910003662,"lon":-97.6521987915,"tz":"America\/Chicago"},{"Destination_airport":"SME","flights":1,"icao":"KSME","iata":"SME","name":"Lake Cumberland Regional Airport","city":"Somerset","state":"Kentucky","country":"US","elevation":927,"lat":37.0533981323,"lon":-84.6158981323,"tz":"America\/New_York"},{"Destination_airport":"SMF","flights":14913,"icao":"KSMF","iata":"SMF","name":"Sacramento International Airport","city":"Sacramento","state":"California","country":"US","elevation":27,"lat":38.695400238,"lon":-121.591003418,"tz":"America\/Los_Angeles"},{"Destination_airport":"SNA","flights":12161,"icao":"KSNA","iata":"SNA","name":"John Wayne Airport-Orange County Airport","city":"Santa Ana","state":"California","country":"US","elevation":56,"lat":33.67570114,"lon":-117.8679962,"tz":"America\/Los_Angeles"},{"Destination_airport":"SNL","flights":1,"icao":"KSNL","iata":"SNL","name":"Shawnee Regional Airport","city":"Shawnee","state":"Oklahoma","country":"US","elevation":1073,"lat":35.3578987122,"lon":-96.9428024292,"tz":"America\/Chicago"},{"Destination_airport":"SNS","flights":10,"icao":"KSNS","iata":"SNS","name":"Salinas Municipal Airport","city":"Salinas","state":"California","country":"US","elevation":85,"lat":36.6627998352,"lon":-121.6060028076,"tz":"America\/Los_Angeles"},{"Destination_airport":"SOW","flights":102,"icao":"KSOW","iata":"SOW","name":"Show Low Regional Airport","city":"Show Low","state":"Arizona","country":"US","elevation":6415,"lat":34.265499115,"lon":-110.005996704,"tz":"America\/Phoenix"},{"Destination_airport":"SPA","flights":1,"icao":"KSPA","iata":"SPA","name":"Spartanburg Downtown Memorial Airport","city":"Spartanburg","state":"South-Carolina","country":"US","elevation":801,"lat":34.9156990051,"lon":-81.9564971924,"tz":"America\/New_York"},{"Destination_airport":"SPI","flights":1600,"icao":"KSPI","iata":"SPI","name":"Abraham Lincoln Capital Airport","city":"Springfield","state":"Illinois","country":"US","elevation":598,"lat":39.84410095,"lon":-89.67790222,"tz":"America\/Chicago"},{"Destination_airport":"SPS","flights":1503,"icao":"KSPS","iata":"SPS","name":"Sheppard Air Force Base-Wichita Falls Municipal Airport","city":"Wichita Falls","state":"Texas","country":"US","elevation":1019,"lat":33.98880005,"lon":-98.49189758,"tz":"America\/Chicago"},{"Destination_airport":"SQI","flights":1,"icao":"KSQI","iata":"SQI","name":"Whiteside Co Arpt-Jos H Bittorf field","city":"Sterling\/Rockfalls","state":"Illinois","country":"US","elevation":648,"lat":41.74280167,"lon":-89.67630005,"tz":"America\/Chicago"},{"Destination_airport":"SRC","flights":2,"icao":"KSRC","iata":"SRC","name":"Searcy Municipal Airport","city":"Searcy","state":"Arkansas","country":"US","elevation":265,"lat":35.21060181,"lon":-91.73750305,"tz":"America\/Chicago"},{"Destination_airport":"SRW","flights":5,"icao":"KRUQ","iata":"SRW","name":"Rowan County Airport","city":"Salisbury","state":"North-Carolina","country":"US","elevation":772,"lat":35.64590073,"lon":-80.52030182,"tz":"America\/New_York"},{"Destination_airport":"SSC","flights":43,"icao":"KSSC","iata":"SSC","name":"Shaw Air Force Base","city":"Sumter","state":"South-Carolina","country":"US","elevation":241,"lat":33.97269821,"lon":-80.47059631,"tz":"America\/New_York"},{"Destination_airport":"SSI","flights":3,"icao":"KSSI","iata":"SSI","name":"Malcolm Mc Kinnon Airport","city":"Brunswick","state":"Georgia","country":"US","elevation":19,"lat":31.15180016,"lon":-81.39129639,"tz":"America\/New_York"},{"Destination_airport":"STC","flights":522,"icao":"KSTC","iata":"STC","name":"St Cloud Regional Airport","city":"St Cloud","state":"Minnesota","country":"US","elevation":1031,"lat":45.5466003418,"lon":-94.0598983765,"tz":"America\/Chicago"},{"Destination_airport":"STE","flights":4,"icao":"KSTE","iata":"STE","name":"Stevens Point Municipal Airport","city":"Stevens Point","state":"Wisconsin","country":"US","elevation":1110,"lat":44.5452003479,"lon":-89.5302963257,"tz":"America\/Chicago"},{"Destination_airport":"STJ","flights":19,"icao":"KSTJ","iata":"STJ","name":"Rosecrans Memorial Airport","city":"St Joseph","state":"Missouri","country":"US","elevation":826,"lat":39.771900177,"lon":-94.9096984863,"tz":"America\/Chicago"},{"Destination_airport":"STK","flights":1,"icao":"KSTK","iata":"STK","name":"Sterling Municipal Airport","city":"Sterling","state":"Colorado","country":"US","elevation":4040,"lat":40.61529922,"lon":-103.2649994,"tz":"America\/Denver"},{"Destination_airport":"STL","flights":76777,"icao":"KSTL","iata":"STL","name":"Lambert St Louis International Airport","city":"St Louis","state":"Missouri","country":"US","elevation":618,"lat":38.7486991882,"lon":-90.3700027466,"tz":"America\/Chicago"},{"Destination_airport":"STP","flights":34,"icao":"KSTP","iata":"STP","name":"St Paul Downtown Holman Field","city":"St Paul","state":"Minnesota","country":"US","elevation":705,"lat":44.9345016479,"lon":-93.0599975586,"tz":"America\/Chicago"},{"Destination_airport":"STS","flights":289,"icao":"KSTS","iata":"STS","name":"Charles M. Schulz Sonoma County Airport","city":"Santa Rosa","state":"California","country":"US","elevation":128,"lat":38.50899887,"lon":-122.8130035,"tz":"America\/Los_Angeles"},{"Destination_airport":"SUM","flights":5,"icao":"KSMS","iata":"SUM","name":"Sumter Airport","city":"Sumter","state":"South-Carolina","country":"US","elevation":182,"lat":33.9949989319,"lon":-80.3612976074,"tz":"America\/New_York"},{"Destination_airport":"SUS","flights":414,"icao":"KSUS","iata":"SUS","name":"Spirit of St Louis Airport","city":"St Louis","state":"Missouri","country":"US","elevation":463,"lat":38.6621017456,"lon":-90.6520004272,"tz":"America\/Chicago"},{"Destination_airport":"SUX","flights":1335,"icao":"KSUX","iata":"SUX","name":"Sioux Gateway Col. Bud Day Field","city":"Sioux City","state":"Iowa","country":"US","elevation":1098,"lat":42.40259933,"lon":-96.38439941,"tz":"America\/Chicago"},{"Destination_airport":"SVC","flights":116,"icao":"KSVC","iata":"SVC","name":"Grant County Airport","city":"Silver City","state":"New-Mexico","country":"US","elevation":5446,"lat":32.6365013123,"lon":-108.15599823,"tz":"America\/Denver"},{"Destination_airport":"SVH","flights":2,"icao":"KSVH","iata":"SVH","name":"Statesville Regional Airport","city":"Statesville","state":"North-Carolina","country":"US","elevation":968,"lat":35.7653007507,"lon":-80.9539031982,"tz":"America\/New_York"},{"Destination_airport":"SVN","flights":125,"icao":"KSVN","iata":"SVN","name":"Hunter Army Air Field","city":"Savannah","state":"Georgia","country":"US","elevation":41,"lat":32.00999832,"lon":-81.14569855,"tz":"America\/New_York"},{"Destination_airport":"SWO","flights":135,"icao":"KSWO","iata":"SWO","name":"Stillwater Regional Airport","city":"Stillwater","state":"Oklahoma","country":"US","elevation":1000,"lat":36.1612014771,"lon":-97.0857009888,"tz":"America\/Chicago"},{"Destination_airport":"SWW","flights":2,"icao":"KSWW","iata":"SWW","name":"Avenger Field","city":"Sweetwater","state":"Texas","country":"US","elevation":2380,"lat":32.4673995972,"lon":-100.4670028687,"tz":"America\/Chicago"},{"Destination_airport":"SYI","flights":8,"icao":"KSYI","iata":"SYI","name":"Bomar Field Shelbyville Municipal Airport","city":"Shelbyville","state":"Tennessee","country":"US","elevation":801,"lat":35.56010056,"lon":-86.44249725,"tz":"America\/Chicago"},{"Destination_airport":"SYR","flights":14903,"icao":"KSYR","iata":"SYR","name":"Syracuse Hancock International Airport","city":"Syracuse","state":"New-York","country":"US","elevation":421,"lat":43.1111984253,"lon":-76.106300354,"tz":"America\/New_York"},{"Destination_airport":"SZL","flights":24,"icao":"KSZL","iata":"SZL","name":"Whiteman Air Force Base","city":"Knob Noster","state":"Missouri","country":"US","elevation":870,"lat":38.7303009033,"lon":-93.5478973389,"tz":"America\/Chicago"},{"Destination_airport":"TBN","flights":225,"icao":"KTBN","iata":"TBN","name":"Waynesville-St. Robert Regional Forney field","city":"Fort Leonard Wood","state":"Missouri","country":"US","elevation":1159,"lat":37.74160004,"lon":-92.14070129,"tz":"America\/Chicago"},{"Destination_airport":"TBR","flights":1,"icao":"KTBR","iata":"TBR","name":"Statesboro Bulloch County Airport","city":"Statesboro","state":"Georgia","country":"US","elevation":187,"lat":32.4827003479,"lon":-81.7369003296,"tz":"America\/New_York"},{"Destination_airport":"TCL","flights":372,"icao":"KTCL","iata":"TCL","name":"Tuscaloosa Regional Airport","city":"Tuscaloosa","state":"Alabama","country":"US","elevation":170,"lat":33.2206001282,"lon":-87.6113967896,"tz":"America\/Chicago"},{"Destination_airport":"TCM","flights":212,"icao":"KTCM","iata":"TCM","name":"McChord Air Force Base","city":"Tacoma","state":"Washington","country":"US","elevation":322,"lat":47.1376991272,"lon":-122.4759979248,"tz":"America\/Los_Angeles"},{"Destination_airport":"TDW","flights":1,"icao":"KTDW","iata":"TDW","name":"Tradewind Airport","city":"Amarillo","state":"Texas","country":"US","elevation":3649,"lat":35.1698989868,"lon":-101.8259963989,"tz":"America\/Chicago"},{"Destination_airport":"TDZ","flights":5,"icao":"KTDZ","iata":"TDZ","name":"Metcalf Field","city":"Toledo","state":"Ohio","country":"US","elevation":623,"lat":41.56489944,"lon":-83.4822998,"tz":"America\/New_York"},{"Destination_airport":"THA","flights":5,"icao":"KTHA","iata":"THA","name":"Tullahoma Regional Arpt\/Wm Northern Field","city":"Tullahoma","state":"Tennessee","country":"US","elevation":1083,"lat":35.38010025,"lon":-86.24639893,"tz":"America\/Chicago"},{"Destination_airport":"THV","flights":3,"icao":"KTHV","iata":"THV","name":"York Airport","city":"York","state":"Pennsylvania","country":"US","elevation":495,"lat":39.91699982,"lon":-76.8730011,"tz":"America\/New_York"},{"Destination_airport":"TIK","flights":23,"icao":"KTIK","iata":"TIK","name":"Tinker Air Force Base","city":"Oklahoma City","state":"Oklahoma","country":"US","elevation":1291,"lat":35.4146995544,"lon":-97.3865966797,"tz":"America\/Chicago"},{"Destination_airport":"TIW","flights":6,"icao":"KTIW","iata":"TIW","name":"Tacoma Narrows Airport","city":"Tacoma","state":"Washington","country":"US","elevation":294,"lat":47.26789856,"lon":-122.5780029,"tz":"America\/Los_Angeles"},{"Destination_airport":"TKF","flights":1,"icao":"KTRK","iata":"TKF","name":"Truckee Tahoe Airport","city":"Truckee","state":"California","country":"US","elevation":5900,"lat":39.3199996948,"lon":-120.1399993896,"tz":"America\/Los_Angeles"},{"Destination_airport":"TLH","flights":5003,"icao":"KTLH","iata":"TLH","name":"Tallahassee Regional Airport","city":"Tallahassee","state":"Florida","country":"US","elevation":81,"lat":30.3964996338,"lon":-84.3503036499,"tz":"America\/New_York"},{"Destination_airport":"TMB","flights":28,"icao":"KTMB","iata":"TMB","name":"Miami Executive Airport","city":"Miami","state":"Miami","country":"US","elevation":10,"lat":25.6475637,"lon":-80.4332246,"tz":"America\/New_York"},{"Destination_airport":"TNT","flights":15,"icao":"KTNT","iata":"TNT","name":"Dade Collier Training and Transition Airport","city":"Miami","state":"Florida","country":"US","elevation":13,"lat":25.8617992401,"lon":-80.8970031738,"tz":"America\/New_York"},{"Destination_airport":"TOL","flights":8280,"icao":"KTOL","iata":"TOL","name":"Toledo Express Airport","city":"Toledo","state":"Ohio","country":"US","elevation":683,"lat":41.58679962,"lon":-83.80780029,"tz":"America\/New_York"},{"Destination_airport":"TPA","flights":40389,"icao":"KTPA","iata":"TPA","name":"Tampa International Airport","city":"Tampa","state":"Florida","country":"US","elevation":26,"lat":27.9755001068,"lon":-82.533203125,"tz":"America\/New_York"},{"Destination_airport":"TSM","flights":18,"icao":"KSKX","iata":"TSM","name":"Taos Regional Airport","city":"Taos","state":"New-Mexico","country":"US","elevation":7095,"lat":36.45819855,"lon":-105.6719971,"tz":"America\/Denver"},{"Destination_airport":"TTN","flights":428,"icao":"KTTN","iata":"TTN","name":"Trenton Mercer Airport","city":"Trenton","state":"New-Jersey","country":"US","elevation":213,"lat":40.2766990662,"lon":-74.8134994507,"tz":"America\/New_York"},{"Destination_airport":"TUL","flights":14498,"icao":"KTUL","iata":"TUL","name":"Tulsa International Airport","city":"Tulsa","state":"Oklahoma","country":"US","elevation":677,"lat":36.1983985901,"lon":-95.8880996704,"tz":"America\/Chicago"},{"Destination_airport":"TUP","flights":307,"icao":"KTUP","iata":"TUP","name":"Tupelo Regional Airport","city":"Tupelo","state":"Mississippi","country":"US","elevation":346,"lat":34.2681007385,"lon":-88.7698974609,"tz":"America\/Chicago"},{"Destination_airport":"TUS","flights":10922,"icao":"KTUS","iata":"TUS","name":"Tucson International Airport","city":"Tucson","state":"Arizona","country":"US","elevation":2643,"lat":32.1161003113,"lon":-110.9410018921,"tz":"America\/Phoenix"},{"Destination_airport":"TVC","flights":2697,"icao":"KTVC","iata":"TVC","name":"Cherry Capital Airport","city":"Traverse City","state":"Michigan","country":"US","elevation":624,"lat":44.7414016724,"lon":-85.5821990967,"tz":"America\/Detroit"},{"Destination_airport":"TVI","flights":1,"icao":"KTVI","iata":"TVI","name":"Thomasville Regional Airport","city":"Thomasville","state":"Georgia","country":"US","elevation":264,"lat":30.901599884,"lon":-83.8813018799,"tz":"America\/New_York"},{"Destination_airport":"TWF","flights":833,"icao":"KTWF","iata":"TWF","name":"Joslin Field Magic Valley Regional Airport","city":"Twin Falls","state":"Idaho","country":"US","elevation":4154,"lat":42.48180008,"lon":-114.487999,"tz":"America\/Boise"},{"Destination_airport":"TYR","flights":1193,"icao":"KTYR","iata":"TYR","name":"Tyler Pounds Regional Airport","city":"Tyler","state":"Texas","country":"US","elevation":544,"lat":32.3540992737,"lon":-95.4023971558,"tz":"America\/Chicago"},{"Destination_airport":"TYS","flights":10273,"icao":"KTYS","iata":"TYS","name":"McGhee Tyson Airport","city":"Knoxville","state":"Tennessee","country":"US","elevation":981,"lat":35.81100082,"lon":-83.9940033,"tz":"America\/New_York"},{"Destination_airport":"UBS","flights":1,"icao":"KUBS","iata":"UBS","name":"Columbus Lowndes County Airport","city":"Columbus","state":"Mississippi","country":"US","elevation":188,"lat":33.4654006958,"lon":-88.3803024292,"tz":"America\/Chicago"},{"Destination_airport":"UCY","flights":2,"icao":"KUCY","iata":"UCY","name":"Everett-Stewart Regional Airport","city":"Union City","state":"Tennessee","country":"US","elevation":336,"lat":36.38180161,"lon":-88.98539734,"tz":"America\/Chicago"},{"Destination_airport":"UIN","flights":340,"icao":"KUIN","iata":"UIN","name":"Quincy Regional Baldwin Field","city":"Quincy","state":"Illinois","country":"US","elevation":768,"lat":39.94269943,"lon":-91.19460297,"tz":"America\/Chicago"},{"Destination_airport":"UKI","flights":212,"icao":"KUKI","iata":"UKI","name":"Ukiah Municipal Airport","city":"Ukiah","state":"California","country":"US","elevation":614,"lat":39.1259994507,"lon":-123.2009963989,"tz":"America\/Los_Angeles"},{"Destination_airport":"UVA","flights":3,"icao":"KUVA","iata":"UVA","name":"Garner Field","city":"Uvalde","state":"Florida","country":"US","elevation":942,"lat":29.2112998962,"lon":-99.743598938,"tz":"America\/Chicago"},{"Destination_airport":"VAD","flights":9,"icao":"KVAD","iata":"VAD","name":"Moody Air Force Base","city":"Valdosta","state":"Georgia","country":"US","elevation":233,"lat":30.9678001404,"lon":-83.1930007935,"tz":"America\/New_York"},{"Destination_airport":"VCT","flights":335,"icao":"KVCT","iata":"VCT","name":"Victoria Regional Airport","city":"Victoria","state":"Texas","country":"US","elevation":115,"lat":28.8526000977,"lon":-96.9185028076,"tz":"America\/Chicago"},{"Destination_airport":"VEL","flights":74,"icao":"KVEL","iata":"VEL","name":"Vernal Regional Airport","city":"Vernal","state":"Utah","country":"US","elevation":5278,"lat":40.4408989,"lon":-109.5100021,"tz":"America\/Denver"},{"Destination_airport":"VGT","flights":265,"icao":"KVGT","iata":"VGT","name":"North Las Vegas Airport","city":"Las Vegas","state":"Nevada","country":"US","elevation":2205,"lat":36.2107009888,"lon":-115.1940002441,"tz":"America\/Los_Angeles"},{"Destination_airport":"VIS","flights":240,"icao":"KVIS","iata":"VIS","name":"Visalia Municipal Airport","city":"Visalia","state":"California","country":"US","elevation":295,"lat":36.3186988831,"lon":-119.3929977417,"tz":"America\/Los_Angeles"},{"Destination_airport":"VLD","flights":459,"icao":"KVLD","iata":"VLD","name":"Valdosta Regional Airport","city":"Valdosta","state":"Georgia","country":"US","elevation":203,"lat":30.7824993134,"lon":-83.2767028809,"tz":"America\/New_York"},{"Destination_airport":"WBR","flights":1,"icao":"KRQB","iata":"WBR","name":"Roben Hood Airport","city":"Big Rapids","state":"Michigan","country":"US","elevation":990,"lat":43.7225990295,"lon":-85.5040969849,"tz":"America\/Detroit"},{"Destination_airport":"WDG","flights":81,"icao":"KWDG","iata":"WDG","name":"Enid Woodring Regional Airport","city":"Enid","state":"Oklahoma","country":"US","elevation":1167,"lat":36.3791999817,"lon":-97.7910995483,"tz":"America\/Chicago"},{"Destination_airport":"WGO","flights":30,"icao":"KOKV","iata":"WGO","name":"Winchester Regional Airport","city":"Winchester","state":"Virginia","country":"US","elevation":726,"lat":39.14350128,"lon":-78.14440155,"tz":"America\/New_York"},{"Destination_airport":"WMH","flights":1,"icao":"KBPK","iata":"WMH","name":"Ozark Regional Airport","city":"Mountain Home","state":"Arkansas","country":"US","elevation":928,"lat":36.3689002991,"lon":-92.4704971313,"tz":"America\/Chicago"},{"Destination_airport":"WRB","flights":21,"icao":"KWRB","iata":"WRB","name":"Robins Air Force Base","city":"Warner Robins","state":"Georgia","country":"US","elevation":294,"lat":32.6400985718,"lon":-83.5919036865,"tz":"America\/New_York"},{"Destination_airport":"WVL","flights":2,"icao":"KWVL","iata":"WVL","name":"Waterville Robert Lafleur Airport","city":"Waterville","state":"Maine","country":"US","elevation":333,"lat":44.5331993103,"lon":-69.6754989624,"tz":"America\/New_York"},{"Destination_airport":"XNA","flights":3805,"icao":"KXNA","iata":"XNA","name":"Northwest Arkansas Regional Airport","city":"Fayetteville\/Springdale\/","state":"Arkansas","country":"US","elevation":1287,"lat":36.2818984985,"lon":-94.3068008423,"tz":"America\/Chicago"},{"Destination_airport":"YIP","flights":6678,"icao":"KYIP","iata":"YIP","name":"Willow Run Airport","city":"Detroit","state":"Michigan","country":"US","elevation":716,"lat":42.23789978,"lon":-83.53040314,"tz":"America\/Detroit"},{"Destination_airport":"YKM","flights":1724,"icao":"KYKM","iata":"YKM","name":"Yakima Air Terminal McAllister Field","city":"Yakima","state":"Washington","country":"US","elevation":1099,"lat":46.56819916,"lon":-120.5439987,"tz":"America\/Los_Angeles"},{"Destination_airport":"YKN","flights":1,"icao":"KYKN","iata":"YKN","name":"Chan Gurney Municipal Airport","city":"Yankton","state":"South-Dakota","country":"US","elevation":1306,"lat":42.9166984558,"lon":-97.3859024048,"tz":"America\/Chicago"},{"Destination_airport":"YNG","flights":1237,"icao":"KYNG","iata":"YNG","name":"Youngstown Warren Regional Airport","city":"Youngstown\/Warren","state":"Ohio","country":"US","elevation":1192,"lat":41.26070023,"lon":-80.67910004,"tz":"America\/New_York"},{"Destination_airport":"YUM","flights":828,"icao":"KNYL","iata":"YUM","name":"Yuma MCAS\/Yuma International Airport","city":"Yuma","state":"Arizona","country":"US","elevation":213,"lat":32.65660095,"lon":-114.6060028,"tz":"America\/Phoenix"},{"Destination_airport":"ZZV","flights":8,"icao":"KZZV","iata":"ZZV","name":"Zanesville Municipal Airport","city":"Zanesville","state":"Ohio","country":"US","elevation":900,"lat":39.9444007874,"lon":-81.8920974731,"tz":"America\/New_York"}]